SchoolName,Location_Code,District,Zip,Economic_Need_Index,School_Income_Estimate,Minorities,Black_or_Hispanic,Percent Hispanic,White,Student_Attendance_Rate,Percent_of_Students_Chronically_Absent,Rigorous_Instruction,Collaborative_Teachers,Supportive_Environment,Effective_School_Leadership,Strong_Family-Community_Ties,Trust,Average_ELA_Proficiency,Average_Math_Proficiency,ELAPassRate,ELApass,ELAWhiteRate,MathTesters,Mathpass,Mathpassrate,MathWhitePass,ELA_limited_pass,ELA_eco_pass,Math_limited_pass,Math_eco_pass,Latitude,Longitude
P.S._15_ROBERTO_CLEMENTE,1M15,1,19,0.919,31141.72,0.99,0.92,0.6,0.1,0.94,0.18,0.89,0.94,0.86,0.91,0.85,0.94,2.14,2.17,,,,52,2,0.38,,,,,,40.721834,-73.978766
P.S._19_ASHER_LEVY,1M19,1,13,0.641,56462.88,0.94,0.83,0.63,0.6,0.92,0.3,0.96,0.96,0.97,0.9,0.86,0.94,2.63,2.98,0.149,14,,93,2,0.215,,,0.643,,0.75,40.729892,-73.984231
P.S._2_ANNA_SILVER,1M2,1,12,0.744,44342.61,0.96,0.57,0.49,0.4,0.94,0.2,0.87,0.77,0.82,0.61,0.8,0.79,2.39,2.54,0.78,17,0.118,22,34,0.155,0.59,,0.176,0.29,0.471,40.721274,-73.986315
P.S._34_FRANKLIN_D._ROOSEVELT,1M34,1,19,0.86,31454,0.96,0.92,0.63,0.4,0.92,0.28,0.85,0.78,0.82,0.73,0.89,0.88,2.48,2.47,0.36,9,,249,13,0.52,,,0.333,,0.231,40.726147,-73.975043
THE_STAR_ACADEMY_-_P.S.63,1M63,1,19,0.73,46435.59,0.9,0.84,0.65,0.1,0.93,0.23,0.9,0.88,0.87,0.81,0.89,0.93,2.38,2.54,0.14,5,,48,1,0.28,,,0.2,,0.4,40.724404,-73.98636
P.S._64_ROBERT_SIMON,1M64,1,19,0.858,39415.45,0.93,0.84,0.66,0.7,0.92,0.33,0.93,0.99,0.95,0.91,0.88,0.97,2.29,2.48,0.27,3,,115,13,0.113,,,0.667,,0.231,40.723747,-73.981602
P.S._11_FLORENCE_NIGHTINGALE,1M11,1,12,0.499,4376.73,0.73,0.53,0.43,0.27,0.95,0.13,0.88,0.78,0.95,0.69,0.87,0.78,2.8,3.2,0.221,43,0.512,195,78,0.4,0.359,,0.326,,0.397,40.715293,-73.979927
P.S._134_HENRIETTA_SZOLD,1M134,1,12,0.833,2882.67,0.97,0.75,0.55,0.3,0.91,0.36,0.87,0.89,0.88,0.88,0.79,0.94,2.28,2.73,0.71,8,,113,19,0.168,,,,0.53,0.368,40.714301,-73.982966
P.S._14_NATHAN_STRAUS,1M14,1,12,0.849,34889.24,0.97,0.9,0.78,0.3,0.93,0.27,0.94,0.91,0.85,0.87,0.83,0.93,2.21,2.27,0.21,5,,244,9,0.37,,,0.2,,0.556,40.719128,-73.983283
P.S._142_AMALIA_CASTRO,1M142,1,12,0.861,35545.1,0.98,0.9,0.78,0.2,0.92,0.27,0.92,0.89,0.9,0.83,0.89,0.95,2.16,2.31,0.42,6,,14,4,0.29,,,,,,40.71823,-73.984082
P.S._184M_SHUANG_WEN,1M184,1,12,0.559,489.9,0.91,0.15,0.12,0.9,0.98,0.2,0.9,0.81,0.91,0.67,0.83,0.85,3.24,3.63,0.29,19,0.46,387,221,0.571,0.32,,0.661,0.77,0.719,40.711437,-73.985486
P.S._188_THE_ISLAND_SCHOOL,1M188,1,12,0.917,27881.59,0.96,0.93,0.64,0.4,0.91,0.37,1,1,0.99,0.99,0.92,0.99,2.17,2.32,0.11,3,,283,22,0.78,,,1,,0.99,40.71987,-73.977376
ORCHARD_COLLEGIATE_ACADEMY,1M292,1,12,0.832,,0.97,0.84,0.57,0.3,0.84,0.58,0.72,0.77,0.77,0.72,0.76,0.87,1.96,1.83,,,,2,,,,,,,,40.713343,-73.986069
"TECHNOLOGY,_ARTS,_AND_SCIENCES_STUDIO",1M31,1,13,0.791,,0.96,0.84,0.55,0.4,0.9,0.35,0.84,0.78,0.81,0.8,0.74,0.87,2.29,2,0.5,7,,138,4,0.29,,,0.571,,0.25,40.729892,-73.984231
THE_EAST_VILLAGE_COMMUNITY_SCHOOL,1M315,1,19,0.362,6376,0.45,0.29,0.21,0.55,0.95,0.11,0.9,0.93,0.94,0.93,0.97,0.96,2.86,3.2,0.141,12,0.5,84,35,0.417,0.6,,0.167,,0.114,40.727726,-73.978382
UNIVERSITY_NEIGHBORHOOD_MIDDLE_SCHOOL,1M332,1,12,0.771,,0.96,0.9,0.63,0.4,0.92,0.26,0.92,0.96,0.92,0.96,0.86,0.96,2.26,2.2,0.11,1,,95,5,0.53,,,0.2,0.4,,40.713343,-73.986069
THE_CHILDREN'S_WORKSHOP_SCHOOL,1M361,1,19,0.451,62519.57,0.62,0.49,0.39,0.38,0.93,0.23,0.97,0.97,0.97,0.96,0.93,0.94,2.89,2.99,0.224,17,0.529,76,21,0.276,0.571,,0.412,,0.286,40.727726,-73.978382
NEIGHBORHOOD_SCHOOL,1M363,1,19,0.43,5754.48,0.55,0.47,0.34,0.45,0.93,0.23,0.99,0.97,0.95,0.96,0.95,0.99,2.55,2.68,0.3,1,1,32,1,0.31,,,,,,40.724404,-73.98636
EARTH_SCHOOL,1M364,1,19,0.448,56787.2,0.63,0.48,0.35,0.37,0.94,0.15,0.96,0.99,0.96,0.98,0.96,0.98,3.1,3.8,0.29,9,0.444,43,14,0.326,0.643,,0.111,,0.71,40.723747,-73.981602
SCHOOL_FOR_GLOBAL_LEADERS,1M378,1,12,0.764,,0.98,0.81,0.58,0.2,0.92,0.27,0.79,0.87,0.82,0.77,0.76,0.88,2.34,2.48,0.58,13,,227,29,0.128,,,0.615,,0.655,40.720185,-73.985957
EAST_SIDE_COMMUNITY_SCHOOL,1M45,1,19,0.61,,0.88,0.74,0.53,0.12,0.97,0.5,0.92,0.95,0.92,0.96,0.88,0.95,2.82,2.9,0.9,19,0.421,24,33,0.162,0.364,,0.474,,0.394,40.729153,-73.982474
"NEW_EXPLORATIONS_INTO_SCIENCE,_TECHNOLOGY_AND_MATH_HIGH_SCHOOL",1M539,1,12,0.257,76833.96,0.58,0.2,0.11,0.42,0.97,0.3,0.81,0.73,0.85,0.55,0.81,0.74,3.83,4.3,0.622,44,0.48,579,476,0.822,0.52,,0.118,,0.99,40.7195,-73.979239
TOMPKINS_SQUARE_MIDDLE_SCHOOL,1M839,1,19,0.597,,0.8,0.53,0.37,0.2,0.96,0.7,0.9,0.89,0.88,0.86,0.83,0.94,2.92,3.1,0.23,54,0.259,249,45,0.181,0.267,,0.481,,0.511,40.723747,-73.981602
P.S._1_ALFRED_E._SMITH,2M1,2,138,0.769,32817.79,0.99,0.34,0.22,0.1,0.95,0.18,0.89,0.91,0.95,0.86,0.87,0.94,2.59,3.14,0.143,26,,185,71,0.384,,,0.692,0.113,0.62,40.712561,-73.997474
P.S._2_MEYER_LONDON,2M2,2,12,0.858,26114.78,0.99,0.13,0.09,0.1,0.98,0.6,0.93,0.86,0.94,0.76,0.83,0.89,2.75,3.24,0.96,32,,343,143,0.417,,0.31,0.313,0.133,0.182,40.712943,-73.991557
P.S._3_CHARRETTE_SCHOOL,2M3,2,114,0.176,13399.19,0.3,0.18,0.12,0.7,0.95,0.13,0.97,0.93,0.97,0.93,0.96,0.95,3.9,3.41,0.231,71,0.69,37,14,0.456,0.743,,0.56,0.7,0.93,40.732632,-74.005947
P.S._6_LILLIE_D._BLAKE,2M6,2,128,0.11,14427.13,0.25,0.09,0.07,0.75,0.96,0.5,0.87,0.9,0.95,0.87,0.92,0.9,3.4,3.71,0.427,15,0.753,355,28,0.586,0.736,,0.53,,0.53,40.777703,-73.960428
P.S._11_WILLIAM_T._HARRIS,2M11,2,111,0.293,98455.77,0.51,0.32,0.25,0.49,0.96,0.1,0.93,0.93,0.98,0.91,0.93,0.95,3.12,3.35,0.285,127,0.583,45,194,0.431,0.567,,0.12,0.21,0.113,40.744549,-74.000737
P.S._33_CHELSEA_PREP,2M33,2,11,0.43,8811.14,0.74,0.42,0.3,0.26,0.96,0.13,0.97,0.9,0.94,0.82,0.92,0.89,3.4,3.4,0.355,1,0.44,284,143,0.54,0.427,,0.18,,0.231,40.748945,-74.000243
P.S._4_AUGUSTUS_SAINT-GAUDENS,2M4,2,13,0.153,12421.46,0.36,0.16,0.13,0.64,0.96,0.7,0.97,0.94,0.99,0.91,0.96,0.96,3.39,3.65,0.471,129,0.69,279,149,0.534,0.698,,0.47,,0.67,40.735118,-73.981697
P.S._41_GREENWICH_VILLAGE,2M41,2,111,0.66,11599.89,0.31,0.11,0.1,0.69,0.97,0.2,0.95,0.96,0.98,0.92,0.95,0.98,3.44,3.7,0.412,135,0.748,327,173,0.529,0.699,,0.22,,0.6,40.735526,-73.999113
P.S._42_BENJAMIN_ALTMAN,2M42,2,12,0.785,NA,0.98,0.04,0.04,0.2,0.98,0.2,0.91,0.94,0.96,0.89,0.85,0.96,2.94,3.55,0.226,86,,387,216,0.558,,0.35,0.593,0.65,0.593,40.716136,-73.990841
P.S._51_ELIAS_HOWE,2M51,2,136,0.626,91149.35,0.8,0.55,0.42,0.2,0.94,0.15,0.9,0.95,0.97,0.91,0.89,0.97,2.55,2.83,0.116,16,0.188,14,32,0.229,0.94,,0.375,,0.344,40.761593,-73.99559
P.S._59_BEEKMAN_HILL_INTERNATIONAL,2M59,2,119,0.75,116235.64,0.41,0.15,0.13,0.59,0.96,0.6,0.87,0.87,0.95,0.76,0.94,0.89,3.24,3.62,0.349,97,0.66,282,147,0.521,0.639,,0.72,,0.12,40.759213,-73.966183
P.S._77_LOWER_LAB_SCHOOL,2M77,2,1128,0.69,15947.71,0.41,0.06,0.05,0.59,0.97,0.1,0.93,0.96,0.98,0.93,0.95,0.99,3.73,3.91,0.718,125,0.616,174,142,0.816,0.577,,,,,40.785014,-73.950031
P.S._89,2M89,2,1282,0.68,181382.6,0.38,0.16,0.14,0.62,0.96,0.6,0.95,0.94,0.98,0.9,0.93,0.97,3.23,3.71,0.399,61,0.574,157,86,0.548,0.65,,,,,40.716867,-74.013623
J.H.S._14_SIMON_BARUCH,2M14,2,11,0.522,,0.72,0.29,0.21,0.28,0.96,0.11,0.87,0.89,0.85,0.84,0.7,0.92,3.5,3.25,0.256,267,0.446,95,328,0.345,0.42,,0.356,0.9,0.396,40.735735,-73.980611
P.S._111_ADOLPH_S._OCHS,2M111,2,119,0.645,797.41,0.87,0.66,0.5,0.13,0.92,0.26,0.89,0.79,0.81,0.74,0.88,0.86,2.39,2.47,0.14,19,0.211,187,24,0.128,0.292,0.53,0.316,0.125,0.375,40.765834,-73.989602
EAST_SIDE_MIDDLE_SCHOOL,2M114,2,128,0.14,,0.34,0.12,0.09,0.66,0.98,0.2,0.92,0.96,0.92,0.94,0.82,0.96,3.66,3.94,0.629,271,0.638,431,339,0.787,0.643,,0.55,,0.59,40.780646,-73.947544
P.S._116_MARY_LINDLEY_MURRAY,2M116,2,116,0.37,96174.16,0.56,0.3,0.22,0.44,0.95,0.14,0.92,0.92,0.95,0.83,0.9,0.92,3.7,3.17,0.245,77,0.584,328,87,0.265,0.54,,0.117,0.69,0.161,40.744425,-73.977634
P.S._124_YUNG_WING,2M124,2,12,0.578,42493.71,0.99,0.03,0.03,0.1,0.98,0.2,0.83,0.77,0.94,0.65,0.8,0.85,3.1,3.55,0.243,95,,394,193,0.49,,,0.453,0.57,0.446,40.714426,-73.995526
P.S._126_JACOB_AUGUST_RIIS,2M126,2,138,0.728,38919.61,0.92,0.32,0.21,0.8,0.96,0.1,0.91,0.93,0.91,0.89,0.82,0.95,2.93,3.29,0.24,119,0.193,399,158,0.396,0.139,,0.54,0.32,0.532,40.710448,-73.997001
P.S._13_HERNANDO_DE_SOTO,2M13,2,113,0.616,59851.21,0.97,0.06,0.05,0.3,0.99,0.2,0.98,0.97,0.97,0.96,0.9,0.99,3.9,3.61,0.288,135,,472,261,0.553,,,0.4,0.15,0.433,40.718819,-73.998263
M.S._131,2M131,2,12,0.837,,1,0.22,0.14,,0.97,0.9,0.86,0.92,0.91,0.86,0.78,0.95,2.49,3.2,0.19,37,,374,87,0.233,,,0.459,0.218,0.69,40.716213,-73.993555
P.S._15,2M15,2,113,0.196,132795.44,0.45,0.19,0.14,0.55,0.95,0.5,0.95,0.9,0.96,0.9,0.95,0.97,3.37,3.43,0.44,33,0.667,76,43,0.566,0.628,,0.61,,0.7,40.718083,-74.010942
YORKVILLE_COMMUNITY_SCHOOL,2M151,2,1128,0.367,8169.71,0.53,0.41,0.27,0.47,0.94,0.16,0.96,0.96,0.93,0.9,0.92,0.95,2.83,3.2,0.273,73,0.699,275,16,0.385,0.679,,0.41,0.28,0.47,40.777924,-73.947316
P.S._158_BAYARD_TAYLOR,2M158,2,121,0.11,94194.68,0.29,0.14,0.1,0.71,0.96,0.8,0.96,0.87,0.96,0.8,0.89,0.89,3.49,3.74,0.419,126,0.73,36,165,0.539,0.764,,0.71,0.3,0.67,40.770203,-73.95073
J.H.S._167_ROBERT_F._WAGNER,2M167,2,121,0.36,,0.58,0.27,0.19,0.42,0.96,0.9,0.85,0.89,0.87,0.84,0.76,0.92,3.8,3.34,0.288,36,0.522,1165,492,0.422,0.478,0.3,0.272,0.28,0.352,40.771827,-73.95794
YORKVILLE_EAST_MIDDLE_SCHOOL,2M177,2,175,0.271,,0.58,0.4,0.3,0.42,0.96,0.9,0.99,0.99,0.88,0.99,0.92,0.98,3.13,3.59,0.229,3,0.467,13,5,0.385,0.48,,0.67,,0.16,40.770203,-73.95073
P.S._183_ROBERT_L._STEVENSON,2M183,2,121,0.74,147.89,0.34,0.14,0.1,0.66,0.96,0.7,0.85,0.94,0.94,0.88,0.93,0.95,3.26,3.39,0.329,82,0.61,258,129,0.5,0.651,,0.24,0.31,0.54,40.763762,-73.957759
P.S._198_ISADOR_E._IDA_STRAUS,2M198,2,1128,0.365,81932.76,0.55,0.37,0.27,0.45,0.94,0.19,0.89,0.9,0.86,0.78,0.95,0.93,2.73,2.97,0.245,56,0.571,23,96,0.417,0.542,,0.161,,0.188,40.785014,-73.950031
P.S._212_MIDTOWN_WEST,2M212,2,136,0.2,85295.72,0.52,0.29,0.23,0.48,0.96,0.5,0.93,0.98,0.97,0.97,0.97,0.99,3.14,3.45,0.31,49,0.449,158,63,0.399,0.476,,0.163,,0.111,40.761329,-73.988669
P.S./I.S._217_ROOSEVELT_ISLAND,2M217,2,144,0.293,93388.6,0.64,0.3,0.14,0.36,0.95,0.1,0.93,0.95,0.89,0.88,0.89,0.92,2.9,3.1,0.167,4,0.45,25,74,0.296,0.459,,0.3,0.27,0.351,40.763969,-73.948468
ELLA_BAKER_SCHOOL,2M225,2,121,0.429,5896.58,0.65,0.56,0.37,0.35,0.92,0.26,0.91,0.91,0.93,0.82,0.95,0.9,2.71,2.75,0.17,9,,81,7,0.86,,,0.111,,0.286,40.765368,-73.959696
P.S._234_INDEPENDENCE_SCHOOL,2M234,2,17,0.65,176793.4,0.3,0.1,0.08,0.7,0.96,0.6,0.92,0.9,0.97,0.76,0.94,0.87,3.25,3.55,0.337,11,0.752,3,125,0.417,0.736,,0.1,,,40.716096,-74.011765
M.S._255_SALK_SCHOOL_OF_SCIENCE,2M255,2,13,0.131,,0.37,0.13,0.09,0.63,0.97,0.5,0.93,0.97,0.95,0.96,0.88,0.98,3.75,3.63,0.67,224,0.594,325,216,0.665,0.579,,0.94,,0.79,40.735118,-73.981697
M.S._26_CLINTON_SCHOOL_WRITERS_&_ARTISTS,2M26,2,13,0.236,,0.35,0.16,0.1,0.65,0.97,0.2,0.91,0.9,0.9,0.87,0.87,0.95,3.37,3.36,0.372,96,0.78,229,84,0.367,0.714,,0.52,,0.6,40.736114,-73.992352
"EAST_SIDE_ELEMENTARY_SCHOOL,_PS_267",2M267,2,165,0.49,115262.92,0.22,0.09,0.07,0.78,0.96,0.7,0.94,0.96,0.95,0.9,0.91,0.91,3.13,3.32,0.375,48,0.813,129,56,0.434,0.786,,0.21,,0.36,40.763854,-73.963813
BATTERY_PARK_CITY_SCHOOL,2M276,2,111,0.114,1485.12,0.44,0.15,0.11,0.56,0.96,0.8,0.92,0.94,0.88,0.92,0.9,0.93,3.16,3.32,0.318,177,0.542,533,194,0.364,0.469,,0.4,0.1,0.41,40.706563,-74.017528
I.S._289,2M289,2,1282,0.313,,0.62,0.21,0.13,0.38,0.97,0.2,0.91,0.97,0.82,0.95,0.84,0.93,3.18,3.26,0.266,73,0.425,273,88,0.322,0.295,,0.356,,0.523,40.716867,-74.013623
P.S._29_MANHATTAN_NEW_SCHOOL,2M29,2,128,0.64,17878.64,0.27,0.1,0.09,0.73,0.96,0.6,0.92,0.96,0.97,0.92,0.93,0.97,3.37,3.75,0.365,11,0.861,283,147,0.519,0.769,,0.4,,0.34,40.775137,-73.952812
NEW_YORK_CITY_LAB_MIDDLE_SCHOOL_FOR_COLLABORATIVE_STUDIES,2M312,2,111,0.38,,0.66,0.1,0.07,0.34,0.98,0.2,0.88,0.91,0.9,0.83,0.85,0.92,3.62,3.94,0.536,285,0.326,43,3,0.744,0.323,,0.288,,0.3,40.742571,-74.002371
THE_PECK_SLIP_SCHOOL,2M343,2,138,,118322.46,0.41,0.16,0.13,0.59,,,,,,,,,,,0.24,1,1,42,13,0.31,0.538,,,,,40.708639,-74.001925
THE_47_AMERICAN_SIGN_LANGUAGE_&_ENGLISH_LOWER_SCHOOL,2M347,2,11,0.812,51287.22,0.77,0.68,0.46,0.23,0.92,0.29,0.82,0.68,0.91,0.53,0.82,0.82,2.32,2.23,,,,27,1,0.37,,,,,,40.738621,-73.981534
SPRUCE_STREET_SCHOOL,2M397,2,118,0.59,143926.53,0.42,0.15,0.12,0.58,0.96,0.6,0.97,0.93,0.97,0.93,0.94,0.95,3.29,3.58,0.299,6,0.6,198,97,0.49,0.536,,0.67,,0.82,40.711057,-74.005361
INSTITUTE_FOR_COLLABORATIVE_EDUCATION,2M47,2,13,0.258,,0.45,0.32,0.16,0.55,0.96,0.13,0.94,0.98,0.9,0.98,0.89,0.96,3.28,2.95,0.28,7,0.429,2,4,0.2,,,,,,40.732676,-73.982576
PROFESSIONAL_PERFORMING_ARTS_HIGH_SCHOOL,2M48,2,136,0.33,,0.56,0.43,0.2,0.44,0.96,0.9,0.9,0.86,0.84,0.85,0.75,0.91,3.44,3.38,0.463,31,0.516,56,23,0.411,0.478,,0.32,,,40.761329,-73.988669
SCHOOL_OF_THE_FUTURE_HIGH_SCHOOL,2M413,2,11,0.358,,0.63,0.4,0.29,0.37,0.97,0.6,0.88,0.96,0.88,0.91,0.76,0.92,3.5,3.21,0.34,76,0.421,251,89,0.355,0.427,,0.289,,0.281,40.739095,-73.985349
QUEST_TO_LEARN,2M422,2,111,0.46,,0.71,0.54,0.35,0.29,0.95,0.11,0.83,0.79,0.82,0.74,0.8,0.86,2.94,2.76,0.97,25,0.44,224,19,0.85,0.368,,0.8,,0.316,40.743368,-74.002547
"BALLET_TECH,_NYC_PUBLIC_SCHOOL_FOR_DANCE",2M442,2,13,0.468,5695.12,0.81,0.41,0.16,0.19,0.96,0.7,0.98,0.98,0.92,0.94,0.84,0.95,3.21,3.65,0.394,56,0.17,12,54,0.45,0.148,,0.446,,0.47,40.73854,-73.989485
P.S._527_-_EAST_SIDE_SCHOOL_FOR_SOCIAL_ACTION,2M527,2,1128,,87424.6,0.41,0.21,0.19,0.59,,,,,,,,,,,0.239,11,0.545,47,3,0.638,0.533,,,,0.167,40.78058,-73.94791
LIFE_SCIENCES_SECONDARY_SCHOOL,2M655,2,1128,0.765,,0.98,0.91,0.6,0.2,0.9,0.3,0.9,0.9,0.77,0.67,0.65,0.81,2.24,1.95,0.18,1,,58,1,0.17,,,1,,1,40.783283,-73.945937
LOWER_MANHATTAN_COMMUNITY_MIDDLE_SCHOOL,2M896,2,14,0.564,,0.73,0.29,0.2,0.27,0.96,0.8,0.84,0.93,0.9,0.95,0.85,0.96,2.77,2.88,0.154,5,0.48,32,9,0.281,0.322,,0.28,0.44,0.5,40.705442,-74.012888
CITY_KNOLL_MIDDLE_SCHOOL,2M933,2,11,0.613,,0.8,0.67,0.47,0.2,0.95,0.19,0.9,0.95,0.8,0.93,0.78,0.93,2.7,2.58,0.11,16,0.313,149,18,0.121,0.333,,0.688,0.111,0.611,40.753389,-73.997896
P.S._9_SARAH_ANDERSON,3M9,3,124,0.221,95312.63,0.41,0.26,0.21,0.59,0.96,0.6,1,0.95,0.99,0.91,0.9,0.96,3.38,3.66,0.377,13,0.689,275,164,0.596,0.671,,0.49,,0.11,40.785101,-73.973867
J.H.S._54_BOOKER_T._WASHINGTON,3M54,3,125,0.221,,0.36,0.2,0.12,0.64,0.96,0.5,0.85,0.83,0.87,0.8,0.84,0.9,3.46,3.7,0.479,374,0.722,577,373,0.646,0.713,,0.94,,0.97,40.800512,-73.962802
P.S._75_EMILY_DICKINSON,3M75,3,125,0.599,56614.57,0.84,0.8,0.56,0.16,0.94,0.22,0.93,0.88,0.92,0.8,0.92,0.92,2.63,2.83,0.113,23,0.217,26,43,0.29,0.29,,0.391,0.23,0.488,40.79511,-73.973988
P.S._76_A._PHILIP_RANDOLPH,3M76,3,127,0.85,3951.13,0.97,0.96,0.16,0.3,0.9,0.42,0.91,0.95,0.93,0.89,0.89,0.96,2.39,2.24,0.42,11,,267,7,0.26,,,0.273,,0.143,40.806541,-73.951368
P.S._84_LILLIAN_WEBER,3M84,3,125,0.5,64633.18,0.62,0.55,0.42,0.38,0.95,0.14,0.92,0.94,0.97,0.81,0.89,0.93,2.76,3,0.149,3,0.567,26,56,0.272,0.571,,0.2,0.54,0.286,40.789382,-73.9681
P.S._87_WILLIAM_SHERMAN,3M87,3,124,0.99,111115.15,0.36,0.2,0.15,0.64,0.96,0.6,0.92,0.8,0.97,0.69,0.93,0.84,3.38,3.59,0.375,131,0.718,351,169,0.481,0.722,,0.46,,0.36,40.781788,-73.978008
"P.S._145,_THE_BLOOMINGDALE_SCHOOL",3M145,3,125,0.843,44727.39,0.93,0.88,0.63,0.7,0.91,0.35,0.91,0.85,0.89,0.76,0.82,0.84,2.12,2.16,0.15,2,,137,2,0.15,,,0.5,,0.5,40.79909,-73.965359
P.S._149_SOJOURNER_TRUTH,3M149,3,126,0.883,3711.83,0.98,0.92,0.27,0.2,0.91,0.37,0.83,0.7,0.77,0.6,0.81,0.82,2.1,2.3,0.7,1,,147,3,0.2,,,,,,40.802666,-73.948256
P.S._163_ALFRED_E._SMITH,3M163,3,125,0.53,64272.58,0.73,0.62,0.46,0.27,0.95,0.13,0.89,0.82,0.91,0.59,0.91,0.78,2.99,3.3,0.222,61,0.426,277,11,0.365,0.396,,0.23,,0.248,40.794945,-73.968535
P.S._165_ROBERT_E._SIMON,3M165,3,125,0.739,48783.74,0.87,0.82,0.68,0.13,0.91,0.29,0.87,0.82,0.87,0.73,0.86,0.85,2.37,2.41,0.85,37,0.189,444,56,0.126,0.214,,0.514,0.71,0.571,40.802678,-73.96595
P.S._166_THE_RICHARD_RODGERS_SCHOOL_OF_THE_ARTS_AND_TECHNOLOGY,3M166,3,124,0.217,98595.22,0.41,0.23,0.17,0.59,0.96,0.8,0.84,0.86,0.95,0.68,0.9,0.84,3.3,3.54,0.431,19,0.697,253,15,0.593,0.647,,0.55,,0.87,40.788883,-73.972455
P.S._18_HUGO_NEWMAN,3M18,3,127,0.69,51468.6,0.92,0.87,0.3,0.8,0.94,0.19,0.86,0.86,0.86,0.85,0.9,0.9,2.48,2.44,0.76,25,,333,25,0.75,,,0.64,,0.52,40.807609,-73.955839
P.S._191_AMSTERDAM,3M191,3,123,0.758,63947.38,0.89,0.81,0.45,0.11,0.91,0.33,0.82,0.79,0.82,0.7,0.88,0.88,2.23,2.1,0.33,6,,174,5,0.29,,,,,,40.771743,-73.987572
P.S._199_JESSIE_ISADOR_STRAUS,3M199,3,123,0.78,115897.33,0.37,0.15,0.13,0.63,0.96,0.5,0.94,0.93,0.99,0.9,0.94,0.95,3.36,3.68,0.381,152,0.645,43,247,0.613,0.656,,0.13,,0.24,40.777766,-73.984736
P.S._28_ALAIN_L._LOCKE,3M28,3,126,0.875,3321.85,0.99,0.95,0.34,0.1,0.93,0.26,0.88,0.9,0.82,0.81,0.85,0.91,2.25,2.24,0.8,1,,125,7,0.56,,,,,,40.798341,-73.950453
STEM_INSTITUTE_OF_MANHATTAN,3M241,3,126,0.849,44126.71,0.96,0.91,0.38,0.4,0.91,0.33,,0.94,0.91,0.95,0.88,0.94,1.97,1.93,0.23,1,,49,1,0.2,,,,,,40.801651,-73.955295
P.S._242_-_THE_YOUNG_DIPLOMATS_MAGNET_ACADEMY,3M242,3,127,0.886,38655.2,0.98,0.94,0.29,0.2,0.9,0.37,0.96,0.76,0.82,0.62,0.83,0.75,2.18,2.52,0.13,1,,8,4,0.5,,,1,,0.25,40.806174,-73.948335
M.S._243_CENTER_SCHOOL,3M243,3,124,0.181,,0.39,0.27,0.12,0.61,0.98,,0.96,0.91,0.96,0.9,0.91,0.96,3.61,3.57,0.498,18,0.657,168,63,0.375,0.714,,0.37,,0.16,40.785101,-73.973867
M.S._M245_THE_COMPUTER_SCHOOL,3M245,3,124,0.34,,0.5,0.4,0.26,0.5,0.97,0.6,0.9,0.92,0.91,0.85,0.86,0.95,3.17,3.14,0.317,114,0.579,277,82,0.296,0.61,,0.158,,0.159,40.781081,-73.978085
M.S._M247_DUAL_LANGUAGE_MIDDLE_SCHOOL,3M247,3,125,0.82,,0.99,0.99,0.99,0.1,0.96,0.7,0.89,0.93,0.92,0.88,0.88,0.95,2.51,2.64,0.8,13,,177,19,0.17,,,0.154,0.53,0.474,40.789382,-73.9681
M.S._25_WEST_SIDE_COLLABORATIVE_MIDDLE_SCHOOL,3M25,3,125,0.661,,0.91,0.87,0.55,0.9,0.94,0.18,0.91,0.98,0.91,0.97,0.82,0.96,2.61,2.44,0.75,12,,159,6,0.38,,,0.583,,0.5,40.79511,-73.973988
M.S._256_ACADEMIC_&_ATHLETIC_EXCELLENCE,3M256,3,125,0.778,,0.93,0.88,0.38,0.7,0.88,0.38,0.83,0.89,0.8,0.87,0.83,0.91,2.27,2.1,0.53,6,,122,5,0.41,,,0.333,,0.6,40.791685,-73.97077
COMMUNITY_ACTION_SCHOOL_-_MS_258,3M258,3,125,0.73,,0.89,0.87,0.43,0.11,0.94,0.15,0.96,0.96,0.87,0.94,0.82,0.93,2.41,2.5,0.49,9,0.111,187,18,0.96,0.111,,0.667,,0.611,40.791685,-73.97077
WEST_END_SECONDARY_SCHOOL,3M291,3,123,,,0.37,0.27,0.18,0.63,,,,,,,,,,,0.291,37,0.784,127,54,0.425,0.759,,0.27,,0.37,40.772487,-73.988153
P.S._333_MANHATTAN_SCHOOL_FOR_CHILDREN,3M333,3,125,0.233,72112.72,0.38,0.27,0.17,0.62,0.95,0.9,0.93,0.87,0.88,0.79,0.94,0.91,3.9,3.3,0.286,18,0.731,351,97,0.276,0.742,,0.93,,0.52,40.791685,-73.97077
THE_ANDERSON_SCHOOL,3M334,3,124,0.134,8926.73,0.47,0.13,0.09,0.53,0.98,0.1,0.9,0.9,0.92,0.87,0.93,0.92,3.93,4.15,0.69,267,0.517,326,278,0.853,0.59,,0.82,,0.36,40.781081,-73.978085
WADLEIGH_SECONDARY_SCHOOL_FOR_THE_PERFORMING_&_VISUAL_ARTS,3M415,3,126,0.791,,0.99,0.96,0.44,0.1,0.93,0.23,0.86,0.77,0.82,0.71,0.77,0.82,2.4,1.99,,,,35,,,,,,,,40.802284,-73.95408
WEST_PREP_ACADEMY,3M421,3,125,0.767,,0.95,0.91,0.39,0.5,0.92,0.25,0.9,0.97,0.83,0.94,0.86,0.94,2.31,2.45,0.12,2,,161,6,0.37,0.167,,0.5,,0.333,40.79909,-73.965359
P.S._452,3M452,3,124,0.162,12963.37,0.36,0.21,0.13,0.64,0.96,0.9,0.97,0.98,0.99,0.96,0.94,0.97,3.28,3.37,0.326,45,0.622,138,7,0.57,0.714,,0.22,,0.14,40.781081,-73.978085
SPECIAL_MUSIC_SCHOOL,3M859,3,123,0.253,76791.47,0.57,0.28,0.14,0.43,0.96,0.7,0.96,0.97,0.91,0.95,0.91,0.95,3.67,3.85,0.643,54,0.47,56,33,0.589,0.545,,,,,40.775221,-73.982997
FREDERICK_DOUGLASS_ACADEMY_II_SECONDARY_SCHOOL,3M86,3,126,0.786,,0.99,0.95,0.27,0.1,0.88,0.34,0.76,0.76,0.81,0.72,0.76,0.84,2.32,2.22,,,,6,2,0.33,,,,,,40.802284,-73.95408
MOTT_HALL_II,3M862,3,125,0.477,,0.74,0.63,0.37,0.26,0.96,0.8,0.83,0.95,0.89,0.93,0.84,0.95,3.11,3.23,0.234,75,0.373,268,64,0.239,0.344,,0.387,,0.375,40.802678,-73.96595
P.S._7_SAMUEL_STERN,4M7,4,135,0.899,24553.59,0.96,0.92,0.62,0.4,0.9,0.34,0.9,0.86,0.83,0.82,0.84,0.87,2.43,2.52,0.54,11,,199,1,0.5,,,0.636,,0.2,40.800631,-73.939323
TAG_YOUNG_SCHOLARS,4M12,4,129,0.435,48431.58,0.85,0.44,0.19,0.15,0.97,0.5,0.92,0.92,0.91,0.86,0.87,0.9,3.64,3.89,0.628,236,0.34,326,242,0.742,0.33,,0.538,,0.393,40.79259,-73.942119
RIVER_EAST_ELEMENTARY,4M37,4,135,0.779,2831.81,0.98,0.96,0.51,0.2,0.92,0.28,0.9,0.88,0.92,0.74,0.86,0.93,2.5,2.44,0.6,5,,83,1,0.12,,,0.6,,,40.796906,-73.929978
P.S._38_ROBERTO_CLEMENTE,4M38,4,129,0.915,34567.95,0.98,0.91,0.61,0.2,0.88,0.5,0.87,0.77,0.76,0.68,0.82,0.82,2.14,2.12,0.2,2,,13,2,0.19,,,0.5,,1,40.788684,-73.944766
P.S._5_VITO_MARCANTONIO,4M5,4,129,0.89,3295.44,1,0.98,0.53,,0.87,0.49,0.87,0.74,0.89,0.67,0.79,0.84,2.1,2.7,0.18,3,,166,2,0.12,,,0.667,,0.5,40.785868,-73.940587
JAMES_WELDON_JOHNSON,4M57,4,129,0.885,2695.7,0.98,0.93,0.67,0.2,0.92,0.28,0.92,0.85,0.85,0.81,0.82,0.91,2.46,2.57,0.69,37,,533,34,0.64,,0.27,0.892,,0.941,40.797156,-73.941285
THE_LEXINGTON_ACADEMY,4M72,4,129,0.866,33728.15,0.97,0.95,0.83,0.3,0.92,0.3,0.9,0.9,0.94,0.82,0.87,0.92,2.32,2.4,0.24,8,,329,18,0.55,,,0.25,0.56,0.389,40.791451,-73.947448
P.S._83_LUIS_MUNOZ_RIVERA,4M83,4,129,0.772,31874.34,0.97,0.84,0.64,0.3,0.93,0.25,0.88,0.9,0.9,0.85,0.87,0.98,2.76,2.8,0.135,26,,195,43,0.221,0.47,,0.654,0.23,0.837,40.79313,-73.941812
P.S._96_JOSEPH_LANZETTA,4M96,4,135,0.92,25392.85,0.97,0.94,0.68,0.3,0.91,0.37,0.88,0.85,0.89,0.77,0.77,0.88,2.17,2.3,0.21,6,,287,3,0.1,,,0.333,,,40.799987,-73.937388
P.S._12_JACQUES_CARTIER,4M12,4,129,0.833,2959.37,0.96,0.85,0.55,0.4,0.91,0.35,0.86,0.78,0.84,0.68,0.87,0.88,2.32,2.39,0.91,11,,122,15,0.123,,,0.727,,0.867,40.79495,-73.938295
P.S._18_ASSEMBLYMAN_ANGELO_DEL_TORO_EDUCATIONAL_COMPLEX,4M18,4,129,0.843,27911.28,0.99,0.92,0.64,0.1,0.91,0.34,0.87,0.8,0.86,0.67,0.83,0.86,2.29,2.31,0.38,15,,393,17,0.43,,,0.667,0.59,0.76,40.795035,-73.947872
P.S._146_ANN_M._SHORT,4M146,4,129,0.93,29414.74,0.98,0.94,0.68,0.2,0.92,0.29,0.77,0.71,0.8,0.65,0.9,0.84,2.14,2.19,,,,142,6,0.42,,,,0.167,0.667,40.7897,-73.939094
P.S._155_WILLIAM_PACA,4M155,4,135,0.92,27577.94,1,0.97,0.87,,0.93,0.25,0.84,0.79,0.91,0.74,0.85,0.79,2.16,2.17,0.38,5,,134,9,0.67,,,1,0.111,0.889,40.797495,-73.936193
P.S._171_PATRICK_HENRY,4M171,4,129,0.751,3178.32,0.96,0.89,0.63,0.4,0.94,0.19,0.92,0.83,0.95,0.71,0.87,0.89,2.85,3.8,0.19,88,,461,146,0.317,,,0.511,,0.562,40.792304,-73.951449
THE_BILINGUAL_BICULTURAL_SCHOOL,4M182,4,129,0.859,31668.33,1,0.99,0.91,,0.94,0.18,0.93,0.85,0.91,0.6,0.84,0.8,2.37,2.71,0.33,5,,162,14,0.86,,,,0.71,,40.79313,-73.941812
P.S._26_JOSE_CELSO_BARBOSA,4M26,4,135,0.817,27376.45,0.94,0.87,0.61,0.6,0.93,0.25,0.83,0.85,0.85,0.8,0.82,0.91,2.36,2.54,0.55,23,,44,33,0.82,0.91,,0.69,0.91,0.788,40.796906,-73.929978
M.S._224_MANHATTAN_EAST_SCHOOL_FOR_ARTS_&_ACADEMICS,4M224,4,129,0.78,,0.93,0.87,0.51,0.7,0.93,0.23,0.88,0.88,0.86,0.8,0.79,0.88,2.64,2.7,0.75,11,,89,1,0.112,,,0.545,,0.6,40.785027,-73.942008
ESPERANZA_PREPARATORY_ACADEMY,4M372,4,129,0.836,,0.98,0.97,0.82,0.2,0.91,0.35,0.87,0.77,0.84,0.72,0.77,0.85,2.19,2.8,0.24,5,,228,1,0.4,,,1,,1,40.79259,-73.942119
MOSAIC_PREPARATORY_ACADEMY,4M375,4,129,0.917,29237.2,0.99,0.91,0.5,0.1,0.92,0.27,0.89,0.86,0.89,0.75,0.86,0.86,2.23,2.25,0.17,2,,116,7,0.6,,,0.5,,0.714,40.796046,-73.944549
RENAISSANCE_SCHOOL_OF_THE_ARTS,4M377,4,135,0.865,,0.99,0.98,0.53,0.1,0.9,0.32,0.89,0.93,0.88,0.89,0.9,0.95,2.32,2.15,0.27,4,,138,,,,,0.75,,,40.797495,-73.936193
GLOBAL_TECHNOLOGY_PREPARATORY,4M46,4,135,0.85,,0.99,0.97,0.56,0.1,0.95,0.15,0.89,0.99,0.88,0.96,0.81,0.94,2.27,2.36,0.38,5,,131,8,0.61,,,0.6,0.125,0.375,40.800631,-73.939323
CENTRAL_PARK_EAST_I,4M497,4,129,0.383,47895.96,0.72,0.49,0.29,0.28,0.95,0.14,1,0.97,0.98,0.95,0.96,0.94,2.67,2.58,,,,18,,,,,,,,40.793747,-73.948572
YOUNG_WOMEN'S_LEADERSHIP_SCHOOL,4M61,4,129,0.722,,0.96,0.85,0.6,0.4,0.95,0.16,0.9,0.97,0.87,0.92,0.72,0.94,2.69,2.54,0.137,18,,131,9,0.69,,,0.667,,0.444,40.792935,-73.947168
ISAAC_NEWTON_MIDDLE_SCHOOL_FOR_MATH_&_SCIENCE,4M825,4,129,0.842,,0.99,0.94,0.64,0.1,0.93,0.23,0.84,0.87,0.85,0.84,0.8,0.92,2.24,2.15,0.43,9,,214,6,0.28,,,0.556,,0.167,40.794167,-73.932694
CENTRAL_PARK_EAST_II,4M964,4,129,0.46,42839.62,0.75,0.6,0.31,0.25,0.93,0.18,0.95,0.98,0.97,0.98,0.94,0.97,2.96,3.8,0.135,15,0.267,112,22,0.196,0.273,,0.2,,0.91,40.792304,-73.951449
P.S._3_HERNANDEZ/HUGHES,5M3,5,135,0.896,26581.16,0.97,0.94,0.47,0.3,0.89,0.4,0.94,0.91,0.92,0.83,0.88,0.92,2.27,2.18,0.33,4,,125,3,0.24,,,,0.333,0.333,40.805584,-73.935484
P.S._36_MARGARET_DOUGLAS,5M36,5,127,0.839,35932.5,0.99,0.97,0.51,0.1,0.9,0.44,0.9,0.81,0.83,0.72,0.82,0.87,2.19,2.3,0.19,3,,157,7,0.45,,,0.333,,0.714,40.810705,-73.957404
P.S._46_ARTHUR_TAPPAN,5M46,5,139,0.93,2335.78,0.99,0.97,0.48,0.1,0.9,0.39,0.91,0.89,0.85,0.81,0.8,0.9,2.19,2.19,0.31,13,,426,5,0.12,,,0.615,,0.8,40.831496,-73.936154
P.S._92_MARY_MCLEOD_BETHUNE,5M92,5,13,0.897,32865.4,0.97,0.95,0.34,0.3,0.9,0.37,0.87,0.88,0.91,0.78,0.86,0.9,2.2,2.22,0.32,4,,126,5,0.4,,,,,,40.814949,-73.945808
P.S._123_MAHALIA_JACKSON,5M123,5,13,0.835,34752.53,0.96,0.93,0.41,0.4,0.88,0.49,0.83,0.72,0.84,0.65,0.82,0.81,2.11,2,0.26,8,,317,2,0.6,,,0.375,,,40.820192,-73.944457
P.S._125_RALPH_BUNCHE,5M125,5,127,0.85,35891.53,0.93,0.85,0.42,0.7,0.91,0.38,0.83,0.9,0.96,0.92,0.89,0.95,2.81,3.12,0.22,1,,47,8,0.17,,,,,,40.81064,-73.955847
P.S._129_JOHN_H._FINLEY,5M129,5,127,0.854,3177.89,0.99,0.93,0.51,0.1,0.92,0.33,0.9,0.91,0.82,0.76,0.81,0.89,2.38,2.29,0.66,18,,285,15,0.53,,,0.389,,0.467,40.814981,-73.952121
P.S._133_FRED_R_MOORE,5M133,5,137,0.875,33344.3,0.95,0.89,0.37,0.5,0.91,0.34,0.84,0.73,0.76,0.47,0.76,0.77,2.21,2.19,,,,93,3,0.32,,,,,,40.809663,-73.939148
EAGLE_ACADEMY_FOR_YOUNG_MEN_OF_HARLEM,5M148,5,13,0.747,,0.99,0.98,0.24,0.1,0.88,0.47,0.92,0.91,0.83,0.91,0.82,0.9,2.26,2.2,0.31,5,,135,,,,,0.6,,,40.817282,-73.947238
P.S._154_HARRIET_TUBMAN,5M154,5,127,0.899,28358.99,0.96,0.9,0.36,0.4,0.92,0.31,0.91,0.87,0.93,0.79,0.82,0.85,2.15,2.16,0.38,4,,18,2,0.19,,,0.5,,,40.810555,-73.948862
P.S._161_PEDRO_ALBIZU_CAMPOS,5M161,5,127,0.875,29854.2,0.99,0.95,0.77,0.1,0.91,0.35,0.89,0.89,0.85,0.79,0.86,0.9,2.28,2.38,0.33,19,,595,37,0.62,,,0.789,0.81,0.649,40.817721,-73.952459
P.S._175_HENRY_H_GARNET,5M175,5,13,0.893,34273.8,0.96,0.93,0.3,0.4,0.91,0.39,0.93,0.92,0.91,0.78,0.84,0.87,2.14,2.26,0.38,6,,165,14,0.85,,,0.333,0.357,0.214,40.814259,-73.942662
P.S._194_COUNTEE_CULLEN,5M194,5,13,0.898,3519.96,0.97,0.92,0.4,0.3,0.9,0.47,0.91,0.73,0.94,0.49,0.87,0.67,2,2.2,0.11,1,,89,3,0.34,,,1,,,40.821182,-73.940665
P.S._197_JOHN_B._RUSSWURM,5M197,5,137,0.874,34797.1,0.97,0.95,0.33,0.3,0.88,0.47,0.94,0.92,0.92,0.92,0.92,0.95,2.21,2.27,0.33,4,,125,5,0.4,,,0.75,,0.8,40.813298,-73.937828
P.S._2-_THE_JAMES_MCCUNE_SMITH_SCHOOL,5M2,5,139,0.892,3461.48,0.98,0.94,0.4,0.2,0.88,0.46,0.83,0.88,0.89,0.81,0.85,0.92,2.12,2.13,,,,213,5,0.23,,,,,0.8,40.823955,-73.935802
URBAN_ASSEMBLY_ACADEMY_FOR_FUTURE_LEADERS,5M286,5,127,0.817,,0.99,0.98,0.39,0.1,0.87,0.42,0.92,0.86,0.9,0.76,0.78,0.86,2.12,1.92,0.22,3,,137,,,,,,,,40.815745,-73.9556
KAPPA_IV,5M32,5,13,0.852,,0.99,0.92,0.39,0.1,0.9,0.35,0.77,0.81,0.81,0.69,0.83,0.84,2.16,1.89,,,,143,,,,,,,,40.817282,-73.947238
THURGOOD_MARSHALL_ACADEMY_LOWER_SCHOOL,5M318,5,127,0.783,33466.58,0.99,0.93,0.14,0.1,0.91,0.31,0.97,0.91,0.89,0.84,0.93,0.92,2.59,2.58,0.116,13,,112,18,0.161,,,0.538,,0.556,40.825964,-73.937942
COLUMBIA_SECONDARY_SCHOOL,5M362,5,127,0.57,,0.8,0.65,0.44,0.2,0.98,0.1,0.87,0.92,0.88,0.9,0.84,0.93,3.47,3.73,0.488,126,0.286,176,126,0.716,0.246,,0.437,,0.389,40.81064,-73.955847
FREDERICK_DOUGLASS_ACADEMY,5M499,5,139,0.78,,0.98,0.94,0.23,0.2,0.93,0.22,0.89,0.86,0.79,0.75,0.78,0.85,2.41,2.24,0.27,7,,258,5,0.19,,,0.714,,1,40.824398,-73.936545
NEW_DESIGN_MIDDLE_SCHOOL,5M514,5,131,0.881,,0.97,0.95,0.43,0.3,0.91,0.27,0.83,0.79,0.81,0.75,0.78,0.87,2.8,1.94,0.25,5,,197,2,0.1,,,,,,40.819764,-73.95724
TEACHERS_COLLEGE_COMMUNITY_SCHOOL,5M517,5,127,0.536,42375.71,0.8,0.67,0.28,0.2,0.95,0.12,0.98,0.99,0.99,0.97,0.94,0.99,,,0.23,2,,87,7,0.8,0.286,,0.5,,0.429,40.812517,-73.95354
THURGOOD_MARSHALL_ACADEMY_FOR_LEARNING_AND_SOCIAL_CHANGE,5M67,5,13,0.732,,1,0.97,0.23,,0.96,0.5,0.79,0.9,0.79,0.82,0.74,0.91,2.47,2.27,0.38,6,,159,1,0.6,,,1,,1,40.815297,-73.944304
P.S._4_DUKE_ELLINGTON,6M4,6,132,0.844,34684.21,1,0.98,0.91,,0.92,0.33,0.91,0.84,0.87,0.74,0.82,0.88,2.24,2.33,0.39,11,,32,2,0.66,,,0.636,0.5,0.75,40.834847,-73.941204
P.S._5_ELLEN_LURIE,6M5,6,134,0.851,29783.6,1,0.98,0.92,,0.93,0.26,0.89,0.86,0.9,0.68,0.86,0.89,2.11,2.28,0.32,8,,259,17,0.66,,,0.625,0.59,0.765,40.85892,-73.922428
P.S._8_LUIS_BELLIARD,6M8,6,132,0.841,33529.45,0.99,0.99,0.96,0.1,0.93,0.2,0.91,0.86,0.85,0.82,0.89,0.91,2.25,2.34,0.13,3,,245,6,0.24,,,0.333,,0.167,40.839384,-73.936783
P.S._18_PARK_TERRACE,6M18,6,134,0.823,446.21,0.98,0.98,0.97,0.2,0.93,0.23,0.92,0.87,0.86,0.79,0.85,0.9,2.1,2.36,0.34,8,,244,2,0.82,,,0.75,0.15,0.9,40.871646,-73.911618
P.S._28_WRIGHT_BROTHERS,6M28,6,132,0.91,3715.4,0.96,0.95,0.84,0.4,0.94,0.2,0.96,0.96,0.96,0.87,0.85,0.95,2.32,2.64,0.23,7,,318,39,0.123,,,0.571,0.13,0.692,40.831655,-73.942079
P.S._48_P.O._MICHAEL_J._BUCZEK,6M48,6,133,0.81,45688.6,0.98,0.97,0.96,0.2,0.94,0.16,0.86,0.88,0.89,0.83,0.84,0.94,2.26,2.41,0.22,6,,275,11,0.4,,,0.667,,0.636,40.853324,-73.933497
J.H.S._52_INWOOD,6M52,6,134,0.824,,0.98,0.97,0.93,0.2,0.93,0.23,0.85,0.91,0.83,0.85,0.91,0.9,2.3,2.22,0.45,17,,397,5,0.13,,0.59,0.941,0.2,1,40.865914,-73.925157
P.S._98_SHORAC_KAPPOCK,6M98,6,134,0.856,4151.7,0.97,0.96,0.94,0.3,0.93,0.26,0.85,0.74,0.87,0.69,0.86,0.84,2.15,2.3,0.17,4,,245,6,0.24,,,0.5,,0.667,40.867823,-73.917818
P.S._115_ALEXANDER_HUMBOLDT,6M115,6,133,0.882,3569.26,0.98,0.97,0.96,0.2,0.92,0.27,0.93,0.88,0.94,0.72,0.84,0.89,2.13,2.35,0.21,5,,243,7,0.29,,,,0.143,,40.846134,-73.935144
P.S._128_AUDUBON,6M128,6,132,0.817,34767.56,0.99,0.98,0.95,0.1,0.91,0.29,0.92,0.93,0.94,0.89,0.89,0.94,2.2,2.39,0.47,11,,246,27,0.11,,,,0.296,,40.841047,-73.938751
P.S._132_JUAN_PABLO_DUARTE,6M132,6,133,0.857,3521.9,0.99,0.99,0.98,0.1,0.95,0.14,0.87,0.8,0.9,0.72,0.85,0.84,2.22,2.25,0.3,8,,277,11,0.4,,,0.875,,0.99,40.850543,-73.933933
J.H.S._143_ELEANOR_ROOSEVELT,6M143,6,133,0.849,,0.97,0.97,0.96,0.3,0.91,0.24,0.82,0.83,0.81,0.78,0.76,0.86,2.12,2.6,0.4,12,,326,4,0.12,,,0.667,,0.25,40.849099,-73.931106
P.S._152_DYCKMAN_VALLEY,6M152,6,14,0.869,3943.45,0.99,0.98,0.96,0.1,0.94,0.22,0.91,0.87,0.89,0.79,0.84,0.88,2.25,2.46,0.39,1,,263,19,0.72,,,,,,40.860052,-73.927601
P.S._153_ADAM_CLAYTON_POWELL,6M153,6,131,0.834,3712.7,0.97,0.94,0.74,0.3,0.93,0.26,0.96,0.86,0.95,0.82,0.87,0.86,2.34,2.54,0.125,39,,318,46,0.145,,0.26,0.769,0.43,0.761,40.826477,-73.947458
P.S._173,6M173,6,133,0.75,391.66,0.97,0.94,0.92,0.3,0.93,0.24,0.9,0.76,0.87,0.64,0.77,0.8,2.36,2.67,0.51,13,,271,16,0.59,,,1,0.125,0.75,40.84562,-73.939738
PROFESSOR_JUAN_BOSCH_PUBLIC_SCHOOL,6M178,6,14,0.721,46192.82,0.88,0.86,0.84,0.12,0.95,0.11,0.96,0.97,0.95,0.92,0.92,0.99,2.69,2.86,0.56,8,,142,23,0.162,,,0.375,,0.652,40.859317,-73.928232
P.S./I.S._187_HUDSON_CLIFFS,6M187,6,14,0.46,68615.55,0.66,0.61,0.58,0.34,0.95,0.11,0.91,0.91,0.88,0.82,0.9,0.89,2.84,2.98,0.2,12,0.52,489,117,0.239,0.496,,0.225,0.26,0.231,40.856137,-73.937295
P.S._189,6M189,6,14,0.872,36511.2,0.98,0.97,0.96,0.2,0.94,0.18,0.9,0.86,0.91,0.8,0.85,0.89,2.3,2.48,0.43,19,,456,29,0.64,,,0.789,,0.759,40.853091,-73.927999
P.S._192_JACOB_H._SCHIFF,6M192,6,131,0.829,4156.33,0.99,0.98,0.92,0.1,0.92,0.26,0.92,0.83,0.93,0.69,0.88,0.82,2.2,2.35,0.16,2,,13,5,0.38,,,,0.2,0.4,40.820988,-73.952995
HAMILTON_GRANGE_MIDDLE_SCHOOL,6M29,6,131,0.786,,0.97,0.96,0.85,0.3,0.96,0.1,0.73,0.78,0.79,0.7,0.79,0.85,2.9,2.31,0.34,5,,151,1,0.66,,,0.6,0.1,0.9,40.820988,-73.952995
P.S./I.S._21_-_TWENTY-FIRST_CENTURY_ACADEMY_FOR_COMMUNITY_LEADERSHIP,6M21,6,131,0.8,36575.2,1,0.99,0.96,,0.95,0.12,0.94,0.92,0.91,0.83,0.86,0.91,2.46,2.62,0.5,13,,265,23,0.87,,0.77,,0.13,0.43,40.830009,-73.944648
I.S._218_SALOME_URENA,6M218,6,14,0.84,,0.97,0.96,0.93,0.3,0.92,0.24,0.91,0.81,0.9,0.75,0.84,0.89,2.9,2.9,0.26,5,,225,,,,,0.2,,,40.86082,-73.930066
THE_MOTT_HALL_SCHOOL,6M223,6,127,0.724,,0.96,0.93,0.84,0.4,0.94,0.16,0.92,0.88,0.87,0.8,0.73,0.9,3.1,3.12,0.233,62,0.48,178,43,0.242,,,0.79,,0.767,40.816172,-73.952104
PAULA_HEDBAVNY_SCHOOL,6M278,6,134,0.64,5767.71,0.83,0.8,0.77,0.17,0.95,0.13,0.97,0.96,0.94,0.9,0.86,0.96,2.76,2.86,0.144,48,,319,64,0.21,,,0.458,,0.422,40.871567,-73.912337
CITY_COLLEGE_ACADEMY_OF_THE_ARTS,6M293,6,14,0.78,,0.98,0.97,0.92,0.2,0.95,0.1,0.85,0.79,0.88,0.67,0.71,0.84,2.78,3,0.159,4,,252,34,0.135,,,0.65,,0.765,40.86082,-73.930066
AMISTAD_DUAL_LANGUAGE_SCHOOL,6M311,6,134,0.713,4261.2,0.95,0.93,0.91,0.5,0.96,0.7,0.86,0.89,0.86,0.8,0.92,0.91,2.45,2.48,0.51,13,,254,17,0.67,,,0.538,0.59,0.353,40.866522,-73.923818
MUSCOTA,6M314,6,134,0.429,52781.49,0.58,0.49,0.46,0.42,0.95,0.7,0.99,0.96,0.97,0.95,0.96,0.96,2.98,3.4,0.244,21,0.48,86,23,0.267,0.87,,0.95,,0.34,40.866522,-73.923818
M.S._319_-_MARIA_TERESA,6M319,6,132,0.838,,0.99,0.98,0.93,0.1,0.94,0.18,0.94,0.92,0.92,0.88,0.88,0.93,2.22,2.29,0.61,26,,432,1,0.23,,,0.846,,0.9,40.839408,-73.935772
MIDDLE_SCHOOL_322,6M322,6,14,0.861,,0.99,0.98,0.95,0.1,0.93,0.23,0.8,0.83,0.86,0.73,0.9,0.89,2.13,2.22,0.33,9,,298,16,0.54,,0.111,1,0.125,0.938,40.86082,-73.930066
M.S._324_-_PATRIA_MIRABAL,6M324,6,132,0.779,,0.97,0.95,0.85,0.3,0.95,0.15,0.93,0.95,0.91,0.92,0.85,0.94,2.33,2.62,0.33,13,,376,23,0.61,,,0.692,0.43,0.87,40.839408,-73.935772
P.S._325,6M325,6,131,0.864,4828.12,0.96,0.96,0.91,0.4,0.93,0.27,0.88,0.88,0.93,0.78,0.83,0.91,2.14,2.19,0.18,2,,115,,,,,,,,40.820988,-73.952995
M.S._328_-_MANHATTAN_MIDDLE_SCHOOL_FOR_SCIENTIFIC_INQUIRY,6M328,6,132,0.834,,0.99,0.97,0.85,0.1,0.87,0.43,0.91,0.87,0.88,0.86,0.84,0.9,1.98,1.97,0.8,1,,133,,,,,1,,,40.836912,-73.937412
COMMUNITY_HEALTH_ACADEMY_OF_THE_HEIGHTS,6M346,6,133,0.85,,0.99,0.98,0.91,0.1,0.93,0.2,0.87,0.95,0.89,0.91,0.8,0.95,2.31,2.23,0.47,12,,259,11,0.42,,,0.333,,0.91,40.833487,-73.942446
WASHINGTON_HEIGHTS_EXPEDITIONARY_LEARNING_SCHOOL,6M348,6,133,0.84,,0.98,0.97,0.94,0.2,0.94,0.18,0.83,0.87,0.89,0.76,0.79,0.92,2.48,2.67,0.29,7,,241,11,0.46,,,0.714,,0.818,40.849099,-73.931106
HARBOR_HEIGHTS,6M349,6,133,0.878,,1,1,1,,0.97,0.3,0.85,0.93,0.89,0.88,0.85,0.94,1.81,2.3,,,,15,,,,,,,,40.84562,-73.939738
WASHINGTON_HEIGHTS_ACADEMY,6M366,6,134,0.777,36559.91,0.98,0.95,0.94,0.2,0.94,0.13,0.95,0.89,0.92,0.84,0.88,0.92,2.57,2.72,0.111,29,,261,37,0.142,,,0.552,0.54,0.541,40.865573,-73.921602
HAMILTON_HEIGHTS_SCHOOL,6M368,6,131,0.756,38325.28,0.85,0.77,0.58,0.15,0.92,0.27,0.95,0.93,0.85,0.88,0.93,0.92,2.22,2.38,0.37,2,,57,4,0.7,,,1,,0.25,40.826477,-73.947458
CASTLE_BRIDGE_SCHOOL,6M513,6,132,0.615,44717.99,0.79,0.75,0.64,0.21,0.95,0.1,0.95,0.99,0.96,0.97,0.94,0.97,,,,,,,,,,,,,,40.841047,-73.938751
I.S._528_BEA_FULLER_RODGERS_SCHOOL,6M528,6,133,0.867,,1,0.99,0.97,,0.95,0.14,0.82,0.82,0.91,0.78,0.85,0.91,2.24,2.19,0.12,2,,161,3,0.19,,,,,,40.850676,-73.934697
P.S._1_COURTLANDT_SCHOOL,7X1,7,1451,0.915,23144.32,0.98,0.97,0.74,0.2,0.92,0.33,0.9,0.89,0.9,0.78,0.83,0.91,2.19,2.23,0.1,3,,37,6,0.2,,,1,0.167,0.667,40.819101,-73.91941
P.S._5_PORT_MORRIS,7X5,7,1455,0.95,22754.7,0.99,0.98,0.71,0.1,0.91,0.36,0.9,0.87,0.81,0.79,0.82,0.85,2.15,2.11,0.18,8,,475,14,0.29,,0.125,0.25,0.71,,40.813613,-73.908429
P.S._18_JOHN_PETER_ZENGER,7X18,7,1451,0.914,22635.63,0.97,0.94,0.64,0.3,0.92,0.29,0.88,0.9,0.9,0.82,0.83,0.93,2.17,2.39,0.37,1,,281,18,0.64,,,0.7,,0.5,40.816249,-73.922585
P.S._25_BILINGUAL_SCHOOL,7X25,7,1455,0.863,26194.38,0.99,0.97,0.87,0.1,0.93,0.23,0.93,0.89,0.91,0.8,0.82,0.9,2.37,2.42,0.61,11,,192,2,0.14,,,0.818,0.5,0.5,40.812854,-73.905725
P.S./M.S._29_MELROSE_SCHOOL,7X29,7,1451,0.891,23911.23,0.99,0.96,0.67,0.1,0.91,0.35,0.9,0.91,0.92,0.81,0.84,0.93,2.12,2.12,0.14,7,,459,5,0.11,,,,,,40.821611,-73.916768
P.S._3_WILTON,7X3,7,1454,0.923,22281.39,0.98,0.96,0.75,0.2,0.9,0.4,0.87,0.9,0.91,0.84,0.9,0.91,2.9,2.15,0.4,1,,273,3,0.11,,,,,1,40.809065,-73.91752
P.S./M.S._31_THE_WILLIAM_LLOYD_GARRISON,7X31,7,1451,0.878,28918.55,0.99,0.96,0.69,0.1,0.9,0.39,0.86,0.86,0.85,0.79,0.81,0.89,2.9,2.4,0.27,11,,395,9,0.23,,,0.455,,0.111,40.822539,-73.921487
P.S._43_JONAS_BRONCK,7X43,7,1454,0.91,292.4,0.99,0.98,0.71,0.1,0.91,0.33,0.89,0.95,0.9,0.84,0.86,0.96,2.29,2.46,0.2,4,,26,17,0.83,,,,0.59,,40.806419,-73.921424
P.S._49_WILLIS_AVENUE,7X49,7,1454,0.924,22392.38,0.99,0.98,0.68,0.1,0.92,0.3,0.87,0.83,0.81,0.74,0.83,0.85,2.19,2.45,0.49,14,,287,37,0.129,,,,0.135,,40.810342,-73.922626
P.S._65_MOTHER_HALE_ACADEMY,7X65,7,1454,0.957,2257.91,0.99,0.96,0.64,0.1,0.89,0.48,0.92,0.88,0.88,0.82,0.84,0.91,2.6,2.12,0.18,3,,169,6,0.36,,,,,0.333,40.807731,-73.912768
J.H.S._151_LOU_GEHRIG,7X151,7,1451,0.89,,0.99,0.98,0.69,0.1,0.92,0.29,0.88,0.9,0.85,0.78,0.8,0.9,2.1,1.98,0.17,4,,25,2,0.8,,,,,,40.822539,-73.921487
P.S._154_JONATHAN_D._HYATT,7X154,7,1454,0.912,18984.33,0.99,0.97,0.57,0.1,0.93,0.25,0.93,0.95,0.92,0.91,0.84,0.96,2.29,2.33,0.23,4,,177,15,0.85,,,,,,40.808255,-73.925748
P.S._157_GROVE_HILL,7X157,7,1456,0.879,2658.27,1,0.99,0.69,,0.9,0.41,0.92,0.91,0.93,0.8,0.82,0.92,2.32,2.41,0.14,4,,283,15,0.53,,,0.5,0.67,0.4,40.819262,-73.909065
P.S._161_JUAN_PONCE_DE_LEON_SCHOOL,7X161,7,1455,0.96,25153.14,0.98,0.96,0.73,0.2,0.91,0.37,0.9,0.87,0.91,0.71,0.79,0.86,2.33,2.48,0.2,4,,199,4,0.2,,,,,,40.814507,-73.905159
J.H.S._162_LOLA_RODRIGUEZ_DE_TIO,7X162,7,1455,0.96,,0.99,0.99,0.7,0.1,0.89,0.39,0.92,0.93,0.85,0.88,0.82,0.93,2.4,1.96,0.9,3,,338,2,0.6,,,1,,1,40.814702,-73.912036
P.S._179,7X179,7,1454,0.899,23737.32,1,0.98,0.83,,0.92,0.33,0.94,0.92,0.9,0.83,0.85,0.96,2.31,2.35,0.19,3,,158,9,0.57,,,,,0.444,40.809216,-73.920032
SOUTH_BRONX_PREPARATORY:_A_COLLEGE_BOARD_SCHOOL,7X221,7,1454,0.872,,0.98,0.96,0.72,0.2,0.93,0.21,0.89,0.92,0.89,0.87,0.74,0.91,2.25,2.39,0.32,9,,279,6,0.22,,0.111,,,,40.813507,-73.920477
M.S._223_THE_LABORATORY_SCHOOL_OF_FINANCE_AND_TECHNOLOGY,7X223,7,1454,0.866,,0.99,0.99,0.79,0.1,0.95,0.12,0.84,0.76,0.85,0.71,0.75,0.82,2.62,2.68,0.17,29,,271,32,0.118,,,0.586,,0.375,40.813507,-73.920477
P.S./I.S._224,7X224,7,1454,0.93,,0.99,0.98,0.74,0.1,0.9,0.35,0.87,0.87,0.81,0.8,0.79,0.88,2.18,2.13,0.12,4,,341,2,0.6,,,,,,40.810207,-73.91839
P.S._277,7X277,7,1454,0.928,22649.64,0.99,0.97,0.74,0.1,0.93,0.22,0.9,0.9,0.89,0.84,0.87,0.93,2.28,2.64,0.47,9,,19,24,0.126,,,0.222,,0.28,40.813307,-73.913837
SOUTH_BRONX_ACADEMY_FOR_APPLIED_MEDIA,7X296,7,1456,0.98,,0.99,0.97,0.63,0.1,0.89,0.38,0.78,0.75,0.82,0.71,0.71,0.83,2.13,2.4,0.2,6,,36,4,0.13,,,1,,1,40.818906,-73.905333
ACADEMY_OF_PUBLIC_RELATIONS,7X298,7,1456,0.882,,0.99,0.98,0.72,0.1,0.9,0.37,0.82,0.92,0.75,0.92,0.75,0.91,2.14,1.97,0.22,6,,257,4,0.16,,,1,,0.5,40.818906,-73.905333
ACADEMY_OF_APPLIED_MATHEMATICS_AND_TECHNOLOGY,7X343,7,1454,0.885,,0.99,0.99,0.72,0.1,0.92,0.29,0.9,0.88,0.87,0.88,0.79,0.91,2.36,2.72,0.72,21,,263,27,0.13,,,0.476,,0.37,40.810207,-73.91839
CONCOURSE_VILLAGE_ELEMENTARY_SCHOOL,7X359,7,1451,0.897,28756.98,0.97,0.95,0.62,0.3,0.92,0.32,1,1,0.99,0.98,0.91,0.99,,,0.358,29,,82,61,0.744,,0.27,0.931,0.18,0.557,40.823009,-73.92284
YOUNG_LEADERS_ELEMENTARY_SCHOOL,7X369,7,1454,0.923,232.7,0.99,0.99,0.81,0.1,0.92,0.3,0.75,0.86,0.83,0.81,0.88,0.9,1.97,2.4,,,,96,,,,,,,,40.809216,-73.920032
HOSTOS-LINCOLN_ACADEMY_OF_SCIENCE,7X5,7,1455,0.799,,0.99,0.94,0.76,0.1,0.93,0.21,0.83,0.79,0.76,0.71,0.77,0.86,2.26,2.19,0.43,7,,15,2,0.13,,,0.143,,,40.814702,-73.912036
THE_URBAN_ASSEMBLY_BRONX_ACADEMY_OF_LETTERS,7X551,7,1451,0.882,,0.98,0.97,0.67,0.2,0.9,0.33,0.8,0.79,0.76,0.72,0.77,0.83,2.8,2.6,0.8,2,,248,,,,,1,,,40.81366,-73.925999
P.S._X14_SENATOR_JOHN_CALANDRA,8X14,8,1461,0.498,66619.65,0.76,0.71,0.65,0.24,0.93,0.22,0.94,0.96,0.98,0.91,0.84,0.97,2.61,2.8,0.98,28,0.393,29,29,0.1,0.345,,0.321,,0.414,40.835535,-73.825861
P.S._36_UNIONPORT,8X36,8,1472,0.779,39933.44,0.97,0.76,0.64,0.3,0.93,0.24,0.94,0.95,0.96,0.86,0.87,0.96,2.6,2.73,0.57,18,,328,49,0.149,0.2,,0.444,0.122,0.551,40.829446,-73.849749
P.S._48_JOSEPH_R._DRAKE,8X48,8,1474,0.922,27859.91,0.99,0.97,0.71,0.1,0.92,0.31,0.88,0.84,0.86,0.68,0.77,0.84,2.1,2.18,0.16,5,,325,12,0.37,,,0.8,0.83,1,40.814228,-73.886889
P.S._62_INOCENSIO_CASANOVA,8X62,8,1455,0.896,23837.79,0.97,0.96,0.77,0.3,0.91,0.35,0.89,0.94,0.92,0.86,0.85,0.95,2.15,2.35,0.26,8,,323,24,0.74,,,,0.42,,40.813875,-73.90019
P.S._69_JOURNEY_PREP_SCHOOL,8X69,8,1473,0.751,47598.42,0.99,0.96,0.8,0.1,0.93,0.22,0.94,0.86,0.92,0.79,0.81,0.88,2.72,3.2,0.88,22,,254,53,0.29,,0.45,0.49,,0.566,40.816837,-73.860541
P.S._71_ROSE_E._SCALA,8X71,8,1461,0.511,5778.8,0.74,0.66,0.62,0.26,0.93,0.22,0.93,0.93,0.86,0.91,0.79,0.93,2.66,2.87,0.122,134,0.224,194,27,0.189,0.227,,0.627,0.24,0.671,40.845595,-73.829638
P.S._72_DR._WILLIAM_DORNEY,8X72,8,1465,0.761,46642.64,0.95,0.92,0.72,0.5,0.91,0.35,0.91,0.87,0.89,0.79,0.83,0.91,2.33,2.44,0.48,17,,351,26,0.74,0.38,,0.765,0.38,0.692,40.823158,-73.818136
P.S._75_SCHOOL_OF_RESEARCH_AND_DISCOVERY,8X75,8,1459,0.922,23987.16,0.99,0.97,0.71,0.1,0.91,0.36,0.93,0.92,0.91,0.83,0.8,0.93,2.24,2.34,0.38,1,,27,2,0.74,,,0.9,,0.85,40.82229,-73.88896
P.S._93_ALBERT_G._OLIVER,8X93,8,1473,0.667,42885.1,0.98,0.97,0.4,0.2,0.93,0.28,0.96,0.95,0.95,0.87,0.93,0.96,2.26,2.32,0.54,8,,154,7,0.45,,,0.75,,0.571,40.822513,-73.877255
P.S._1_ISAAC_CLASON,8X1,8,1473,0.86,2771.67,0.99,0.97,0.64,0.1,0.92,0.31,0.94,0.95,0.91,0.91,0.82,0.95,2.32,2.34,0.22,6,,278,5,0.18,,,1,,0.2,40.82191,-73.862615
M.S._X11_EDWARD_R._BYRNE,8X11,8,1465,0.489,,0.8,0.66,0.56,0.2,0.95,0.15,0.89,0.86,0.88,0.85,0.73,0.89,2.89,2.74,0.237,18,0.167,448,64,0.143,0.141,,0.639,,0.656,40.827214,-73.829212
P.S._17,8X17,8,1473,0.913,27853.77,0.97,0.96,0.64,0.3,0.9,0.43,0.95,0.93,0.92,0.84,0.83,0.92,2.21,2.24,0.34,8,,242,11,0.45,,0.125,0.125,,0.182,40.818887,-73.868609
THE_DR._EMMETT_W._BASSETT_SCHOOL,8X119,8,1472,0.8,39485.31,0.93,0.6,0.51,0.7,0.94,0.21,0.84,0.89,0.92,0.83,0.86,0.94,2.41,2.68,0.91,43,,499,66,0.132,,,0.698,0.3,0.652,40.828493,-73.856571
J.H.S._123_JAMES_M._KIERAN,8X123,8,1472,0.876,,1,0.99,0.78,,0.91,0.28,0.67,0.64,0.78,0.53,0.71,0.69,2.15,1.98,0.17,5,,37,7,0.23,,,0.4,,0.714,40.824884,-73.873517
J.H.S._125_HENRY_HUDSON,8X125,8,1472,0.821,,0.93,0.71,0.54,0.7,0.9,0.33,0.89,0.86,0.84,0.77,0.78,0.89,2.26,2.26,0.33,11,,323,11,0.34,,0.91,0.545,0.182,,40.829414,-73.856783
P.S._13_ABRAM_STEVENS_HEWITT,8X13,8,1455,0.872,24977.29,0.98,0.96,0.73,0.2,0.92,0.27,0.95,0.92,0.93,0.85,0.86,0.95,2.7,2.22,0.18,4,,231,1,0.43,,,0.5,0.1,0.7,40.817778,-73.901831
J.H.S._131_ALBERT_EINSTEIN,8X131,8,1473,0.812,,0.99,0.96,0.6,0.1,0.91,0.34,0.79,0.9,0.78,0.84,0.74,0.87,2.24,2.7,0.2,1,,474,3,0.6,,,0.5,,0.667,40.823319,-73.860062
P.S._138_SAMUEL_RANDALL,8X138,8,1473,0.851,35635.81,0.99,0.95,0.7,0.1,0.89,0.42,0.94,0.97,0.92,0.86,0.81,0.95,2.32,2.39,0.37,14,,374,25,0.67,,,0.857,,0.84,40.822374,-73.852831
P.S._X14_THE_EAGLE_SCHOOL,8X14,8,1456,0.875,26763.23,0.98,0.96,0.61,0.2,0.9,0.4,0.88,0.82,0.87,0.76,0.84,0.88,2.16,2.36,0.25,7,,278,7,0.25,,,0.857,0.143,0.857,40.823374,-73.907378
P.S._146_EDWARD_COLLINS,8X146,8,1456,0.911,2523.54,1,0.97,0.55,,0.91,0.36,0.95,0.9,0.92,0.82,0.83,0.89,2.25,2.27,0.24,3,,129,8,0.62,,,0.333,,0.75,40.825125,-73.90592
P.S._152_EVERGREEN,8X152,8,1472,0.913,28256.4,0.99,0.96,0.78,0.1,0.91,0.35,0.8,0.83,0.89,0.73,0.83,0.85,2.19,2.39,0.35,14,,47,22,0.54,,,0.643,0.45,0.682,40.823978,-73.880504
P.S._182,8X182,8,1473,0.73,45924.94,0.98,0.9,0.62,0.2,0.92,0.32,0.85,0.75,0.82,0.59,0.8,0.82,2.59,2.77,0.13,49,,481,82,0.17,,,0.796,,0.85,40.818892,-73.856982
BRONX_STUDIO_SCHOOL_FOR_WRITERS_AND_ARTISTS,8X269,8,1459,0.853,,0.99,0.98,0.76,0.1,0.92,0.29,0.81,0.84,0.79,0.82,0.75,0.91,2.24,2.15,0.13,3,,234,4,0.17,,,0.333,,0.75,40.820398,-73.892938
M.S._31_PAUL_L._DUNBAR,8X31,8,1456,0.823,,0.99,0.98,0.57,0.1,0.88,0.45,0.84,0.89,0.87,0.85,0.8,0.92,1.97,1.95,0.1,2,,28,,,,,1,,,40.822303,-73.906686
M.S._32_LUISA_DESSUS_CRUZ,8X32,8,1455,0.96,,0.99,0.98,0.77,0.1,0.87,0.48,0.82,0.84,0.95,0.76,0.77,0.92,2.22,2.17,0.51,23,,465,3,0.65,,,0.87,,1,40.815971,-73.901686
P.S._34_EARLY_CHILDHOOD_SCHOOL,8X34,8,1465,0.388,6798.68,0.73,0.64,0.59,0.27,0.95,0.13,0.9,0.94,0.96,0.86,0.9,0.98,2.94,3.1,0.251,62,0.387,248,61,0.246,0.361,,0.645,,0.639,40.827214,-73.829212
P.S._333_-_THE_MUSEUM_SCHOOL,8X333,8,1459,0.915,26448.84,0.98,0.97,0.77,0.2,0.89,0.46,0.89,0.8,0.91,0.62,0.78,0.85,2.22,2.21,0.6,1,,167,1,0.6,,,1,,1,40.820082,-73.898647
THE_ACADEMY_OF_THE_ARTS,8X335,8,1459,0.891,25876.53,0.99,0.96,0.67,0.1,0.92,0.34,0.95,0.96,0.97,0.95,0.86,0.98,2.27,2.54,0.19,2,,111,8,0.72,,,0.5,,0.625,40.820082,-73.898647
THE_SCHOOL_FOR_INQUIRY_AND_SOCIAL_JUSTICE,8X337,8,1472,0.781,,0.99,0.96,0.68,0.1,0.93,0.2,0.97,0.97,0.86,0.96,0.8,0.94,2.67,2.77,0.85,36,,412,79,0.192,,,0.611,,0.671,40.824884,-73.873517
"ARCHIMEDES_ACADEMY_FOR_MATH,_SCIENCE_AND_TECHNOLOGY_APPLICATIONS",8X367,8,1473,0.723,,0.99,0.9,0.58,0.1,0.93,0.24,0.81,0.78,0.8,0.66,0.71,0.83,2.46,2.39,0.63,16,,237,7,0.3,,,0.813,,0.714,40.815017,-73.856018
URBAN_INSTITUTE_OF_MATHEMATICS,8X371,8,1465,0.56,,0.79,0.74,0.59,0.21,0.93,0.25,0.88,0.87,0.87,0.82,0.76,0.87,2.74,2.47,0.146,42,0.333,289,2,0.69,0.45,,0.595,,0.4,40.826997,-73.818271
THE_BRONX_MATHEMATICS_PREPARATORY_SCHOOL,8X375,8,1473,0.818,,1,0.97,0.63,,0.89,0.4,0.79,0.75,0.79,0.65,0.76,0.81,2.17,2.1,0.13,3,,219,3,0.14,,,0.667,,1,40.815017,-73.856018
ANTONIA_PANTOJA_PREPARATORY_ACADEMY:_A_COLLEGE_BOARD_SCHOOL,8X376,8,1473,0.756,,0.99,0.91,0.68,0.1,0.9,0.32,0.84,0.71,0.74,0.61,0.74,0.85,2.33,2.15,0.51,9,,177,5,0.28,,,0.889,,0.8,40.821448,-73.855654
THE_HUNTS_POINT_SCHOOL,8X424,8,1474,0.876,,0.99,0.98,0.77,0.1,0.9,0.35,0.83,0.74,0.83,0.73,0.82,0.86,2.11,2.2,0.11,3,,294,1,0.3,,,,,,40.815594,-73.885238
SOUNDVIEW_ACADEMY_FOR_CULTURE_AND_SCHOLARSHIP,8X448,8,1473,0.82,,0.99,0.96,0.65,0.1,0.91,0.31,0.86,0.88,0.87,0.81,0.84,0.9,2.31,2.33,0.39,13,,31,7,0.23,,,0.538,,0.286,40.823319,-73.860062
MOTT_HALL_COMMUNITY_SCHOOL,8X467,8,1465,0.639,,0.82,0.79,0.69,0.18,0.92,0.31,0.74,0.8,0.81,0.57,0.78,0.81,2.28,2.22,0.27,6,0.167,186,4,0.22,,,0.667,,0.75,40.826997,-73.818271
BLUEPRINT_MIDDLE_SCHOOL,8X562,8,1472,0.796,,0.99,0.74,0.56,0.1,0.92,0.29,0.93,0.95,0.8,0.93,0.79,0.91,2.23,2.17,0.22,6,,28,12,0.43,,,0.833,,0.75,40.829108,-73.85691
P.S./M.S._4_CROTONA_PARK_WEST,9X4,9,1457,0.93,2883.61,0.99,0.98,0.45,0.1,0.88,0.44,0.85,0.77,0.89,0.68,0.8,0.86,2.28,2.45,0.39,13,,338,33,0.98,,,,0.91,,40.841242,-73.898492
P.S._11_HIGHBRIDGE,9X11,9,1452,0.923,26475.48,1,0.99,0.69,,0.92,0.33,0.95,0.94,0.92,0.83,0.84,0.93,2.31,2.32,0.35,12,,344,21,0.61,,,,0.381,,40.83973,-73.925913
J.H.S._22_JORDAN_L._MOTT,9X22,9,1456,0.877,,0.99,0.98,0.72,0.1,0.9,0.34,0.85,0.82,0.82,0.76,0.77,0.88,2.5,1.91,0.19,7,,395,3,0.8,,,0.857,,0.333,40.832278,-73.914142
P.S._28_MOUNT_HOPE,9X28,9,1457,0.922,25532.54,0.99,0.98,0.81,0.1,0.91,0.33,0.9,0.8,0.89,0.5,0.93,0.62,2.28,2.47,0.63,2,,327,38,0.116,,,0.9,0.26,0.632,40.848338,-73.903702
P.S._35_FRANZ_SIEGEL,9X35,9,1451,0.834,27766.12,0.99,0.97,0.68,0.1,0.93,0.23,0.89,0.87,0.86,0.76,0.81,0.92,2.28,2.48,0.32,11,,355,19,0.54,,,0.455,,0.526,40.82761,-73.91809
P.S._42_CLAREMONT,9X42,9,1456,0.935,24249.23,0.98,0.97,0.56,0.2,0.9,0.37,0.88,0.91,0.86,0.88,0.9,0.93,2.18,2.25,0.31,6,,25,1,0.49,,,,,0.4,40.838559,-73.903026
P.S._53_BASHEER_QUISIM,9X53,9,1456,0.919,23994.98,0.98,0.97,0.64,0.2,0.9,0.42,0.91,0.88,0.92,0.81,0.8,0.88,2.42,2.63,0.1,55,,573,78,0.136,,0.18,0.782,0.13,0.833,40.832774,-73.911831
P.S._55_BENJAMIN_FRANKLIN,9X55,9,1456,0.939,19445.65,1,0.99,0.52,,0.92,0.28,0.86,0.78,0.83,0.74,0.81,0.9,2.4,2.15,0.9,3,,326,4,0.12,,,1,,1,40.835973,-73.904838
P.S._58,9X58,9,1457,0.91,25416.2,0.99,0.97,0.71,0.1,0.9,0.43,0.87,0.79,0.86,0.69,0.79,0.8,2.17,2.32,0.5,1,,217,9,0.41,,,1,0.111,0.889,40.846275,-73.898878
P.S._63_AUTHOR'S_ACADEMY,9X63,9,1456,0.89,25772.81,0.97,0.97,0.61,0.3,0.9,0.39,0.96,0.94,0.94,0.88,0.86,0.95,2.55,2.65,0.8,21,,279,35,0.125,,0.48,,,0.86,40.830895,-73.902386
P.S._7_MAX_SCHOENFELD,9X7,9,1457,0.916,2819.58,0.99,0.98,0.74,0.1,0.91,0.37,0.88,0.87,0.84,0.82,0.82,0.9,2.1,2.26,0.22,14,,671,29,0.43,,,,0.138,,40.844394,-73.908023
P.S._73_BRONX,9X73,9,1452,0.891,2258.13,0.99,0.99,0.74,0.1,0.9,0.41,0.85,0.82,0.82,0.68,0.83,0.83,2.7,2.1,0.9,3,,345,7,0.2,,,1,0.143,1,40.83262,-73.926485
P.S._X88_-_S._SILVERSTEIN_LITTLE_SPARROW_SCHOOL,9X88,9,1456,0.87,22255.1,1,0.98,0.68,,0.94,0.17,0.95,0.89,0.95,0.78,0.78,0.95,,,,,,37,2,0.54,,,,,1,40.83702,-73.913549
P.S._19_SEDGWICK,9X19,9,1453,0.874,26397.5,0.99,0.99,0.8,0.1,0.91,0.32,0.79,0.69,0.73,0.57,0.79,0.77,2.19,2.17,0.31,11,,353,1,0.28,,,0.91,0.1,0.3,40.851637,-73.918772
P.S._11_THEODORE_SCHOENFELD,9X11,9,1456,0.91,21689.93,0.95,0.95,0.52,0.5,0.93,0.25,0.83,0.83,0.82,0.68,0.82,0.86,2.33,2.4,0.32,6,,196,14,0.71,,,0.667,,0.357,40.834973,-73.900304
P.S._X114_-_LUIS_LLORENS_TORRES_SCHOOLS,9X114,9,1452,0.94,26823.6,0.98,0.93,0.71,0.2,0.92,0.31,0.95,0.93,0.95,0.86,0.83,0.93,2.7,2.19,0.28,11,,48,17,0.42,,,,,,40.835007,-73.923347
I.S._117_JOSEPH_H._WADE,9X117,9,1453,0.9,,0.99,0.97,0.8,0.1,0.89,0.39,0.77,0.7,0.8,0.68,0.8,0.84,2.4,2,0.15,8,,52,2,0.4,,,0.875,,1,40.848521,-73.908447
P.S._126_DR_MARJORIE_H_DUNBAR,9X126,9,1452,0.91,2271.33,0.98,0.97,0.71,0.2,0.91,0.36,0.89,0.79,0.85,0.7,0.79,0.79,2.27,2.17,0.46,13,,292,9,0.31,,,0.615,0.111,,40.836201,-73.928346
MOTT_HALL_III,9X128,9,1456,0.852,,1,0.98,0.53,,0.95,0.11,0.88,0.93,0.87,0.88,0.76,0.92,2.71,2.95,0.163,58,,325,51,0.157,,,0.948,,0.92,40.834973,-73.900304
P.S._132_GARRET_A._MORGAN,9X132,9,1456,0.928,2272.97,1,0.98,0.54,,0.89,0.44,0.95,0.76,0.71,0.6,0.75,0.74,2.7,2.18,0.1,2,,26,1,0.5,,,1,,1,40.832081,-73.906951
J.H.S._145_ARTURO_TOSCANINI,9X145,9,1456,0.888,,1,0.98,0.69,,0.89,0.43,0.86,0.81,0.89,0.72,0.79,0.86,2.9,1.98,0.8,2,,287,3,0.1,,,1,,1,40.827748,-73.913773
P.S._163_ARTHUR_A._SCHOMBURG,9X163,9,1457,0.928,25534.74,0.99,0.97,0.6,0.1,0.93,0.26,0.77,0.55,0.69,0.48,0.78,0.67,2.3,2.42,0.57,14,,261,11,0.42,,,,,0.182,40.851773,-73.898794
P.S._199X_-_THE_SHAKESPEARE_SCHOOL,9X199,9,1452,0.91,26634.37,0.99,0.97,0.67,0.1,0.91,0.34,0.87,0.79,0.87,0.69,0.82,0.82,2.21,2.31,0.24,9,,377,22,0.58,,,0.667,,0.364,40.843553,-73.920665
P.S._24_MORRIS_HEIGHTS,9X24,9,1453,0.865,2187,0.98,0.96,0.67,0.2,0.94,0.18,0.89,0.95,0.92,0.89,0.87,0.98,2.46,2.65,0.113,32,,288,54,0.188,,,0.563,0.19,0.611,40.849995,-73.915226
KAPPA,9X215,9,1456,0.839,,1,0.93,0.48,,0.95,0.12,0.88,0.86,0.84,0.77,0.75,0.88,2.48,2.67,0.89,23,,29,18,0.86,,0.43,0.696,0.56,0.667,40.833708,-73.903937
P.S./I.S._218_RAFAEL_HERNANDEZ_DUAL_LANGUAGE_MAGNET_SCHOOL,9X218,9,1452,0.861,25919.64,0.99,0.94,0.89,0.1,0.94,0.18,0.89,0.84,0.89,0.76,0.82,0.88,2.45,2.56,0.48,29,,569,39,0.69,,,0.69,0.26,0.718,40.835694,-73.919663
I.S._219_NEW_VENTURE_SCHOOL,9X219,9,1456,0.929,,0.99,0.98,0.61,0.1,0.9,0.35,0.82,0.66,0.81,0.63,0.7,0.79,1.98,1.92,0.11,3,,291,1,0.3,,,,,,40.833708,-73.903937
I.S._229_ROLAND_PATTERSON,9X229,9,1453,0.885,,0.99,0.98,0.63,0.1,0.9,0.38,0.78,0.65,0.83,0.63,0.81,0.81,2.1,1.99,0.17,4,,247,1,0.4,,,1,,1,40.841563,-73.929604
EAGLE_ACADEMY_FOR_YOUNG_MEN,9X231,9,1457,0.75,,1,0.97,0.39,,0.94,0.18,0.82,0.86,0.77,0.83,0.85,0.89,2.21,2.13,0.5,1,,158,4,0.25,,,1,,1,40.845324,-73.897392
I.S._232,9X232,9,1453,0.872,,0.99,0.99,0.79,0.1,0.93,0.25,0.78,0.65,0.82,0.59,0.78,0.79,2.16,2.27,0.26,12,,418,9,0.22,,,0.75,,1,40.849461,-73.915529
P.S._236_LANGSTON_HUGHES,9X236,9,1453,0.882,26958.39,0.98,0.98,0.68,0.2,0.93,0.2,0.93,0.93,0.92,0.85,0.87,0.93,2.19,2.28,0.51,8,,155,9,0.58,,,0.75,,0.889,40.848826,-73.909699
"URBAN_ASSEMBLY_SCHOOL_FOR_APPLIED_MATH_AND_SCIENCE,_THE",9X241,9,1457,0.822,,0.99,0.98,0.64,0.1,0.92,0.26,0.82,0.82,0.8,0.79,0.77,0.86,2.23,2.47,0.24,6,,195,1,0.51,,,0.5,,,40.839457,-73.901895
THE_NEW_AMERICAN_ACADEMY_AT_ROBERTO_CLEMENTE_STATE_PARK,9X274,9,1453,0.934,2772.6,0.99,0.98,0.59,0.1,0.88,0.53,0.92,0.95,0.96,0.95,0.87,0.96,,,0.66,13,,27,8,0.39,,,0.846,,1,40.841563,-73.929604
THE_WALTON_AVENUE_SCHOOL,9X294,9,1452,0.916,2586.36,0.97,0.95,0.73,0.3,0.92,0.3,0.96,0.95,0.96,0.94,0.87,0.94,,,0.184,27,,151,35,0.232,,0.37,0.852,0.171,0.429,40.840366,-73.915716
I.S._X33_LEADERSHIP_&_COMMUNITY_SERVICE,9X33,9,1453,0.91,,0.99,0.98,0.75,0.1,0.92,0.27,0.82,0.93,0.86,0.92,0.8,0.93,2.27,2.29,0.24,7,,285,8,0.28,,,0.571,,0.5,40.849461,-73.915529
LUCERO_ELEMENTARY_SCHOOL,9X311,9,1452,0.929,2544.32,0.99,0.97,0.87,0.1,0.91,0.33,0.98,0.97,0.98,0.93,0.86,0.97,,,0.15,2,,146,1,0.7,,,1,,1,40.840366,-73.915716
I.S._313_SCHOOL_OF_LEADERSHIP_DEVELOPMENT,9X313,9,1457,0.881,,1,0.99,0.67,,0.89,0.42,0.73,0.8,0.78,0.6,0.75,0.79,2.5,2.5,0.16,4,,283,4,0.14,,,0.5,,0.5,40.840589,-73.90454
BRONX_WRITING_ACADEMY,9X323,9,1456,0.892,,0.99,0.95,0.66,0.1,0.87,0.45,0.81,0.78,0.81,0.7,0.78,0.87,2.21,2.17,0.25,1,,424,8,0.19,,,0.7,,1,40.832278,-73.914142
BRONX_EARLY_COLLEGE_ACADEMY_FOR_TEACHING_&_LEARNING,9X324,9,1456,0.819,,0.98,0.95,0.66,0.2,0.93,0.23,0.9,0.94,0.84,0.88,0.74,0.9,2.17,2.16,0.2,4,,197,5,0.25,,,0.25,,0.2,40.828111,-73.917661
URBAN_SCIENCE_ACADEMY,9X325,9,1456,0.891,,0.99,0.97,0.67,0.1,0.9,0.36,0.77,0.75,0.84,0.72,0.84,0.87,2,1.97,0.16,4,,272,2,0.7,,,0.75,,1,40.827748,-73.913773
COMPREHENSIVE_MODEL_SCHOOL_PROJECT_M.S._327,9X327,9,1452,0.862,,0.99,0.99,0.77,0.1,0.94,0.21,0.93,0.94,0.85,0.91,0.79,0.93,2.64,3.3,0.74,21,,281,64,0.228,,,0.95,,0.938,40.842811,-73.916384
NEW_MILLENNIUM_BUSINESS_ACADEMY_MIDDLE_SCHOOL,9X328,9,1456,0.938,,1,0.98,0.65,,0.9,0.38,0.9,0.93,0.84,0.82,0.8,0.89,2.1,2,0.6,1,,171,3,0.18,,,1,0.333,0.667,40.827748,-73.913773
I.S._339,9X339,9,1457,0.913,,0.99,0.98,0.7,0.1,0.91,0.31,0.82,0.75,0.77,0.66,0.77,0.77,2.5,2.4,0.16,7,,462,2,0.4,,,0.571,,,40.840589,-73.90454
NEW_DIRECTIONS_SECONDARY_SCHOOL,9X35,9,1457,0.92,,1,0.98,0.67,,0.66,0.74,0.66,0.71,0.93,0.67,0.78,0.89,1.9,1.91,,,,93,,,,,,,,40.839654,-73.911386
THE_HIGHBRIDGE_GREEN_SCHOOL,9X361,9,1452,0.886,,0.99,0.98,0.73,0.1,0.94,0.2,0.94,0.93,0.94,0.94,0.85,0.95,2.27,2.17,0.3,11,,371,3,0.8,,,0.727,,0.667,40.838201,-73.928084
BRONX_HIGH_SCHOOL_FOR_MEDICAL_SCIENCE,9X413,9,1457,0.81,,0.99,0.9,0.57,0.1,0.96,0.11,0.9,0.92,0.82,0.81,0.81,0.91,2.57,2.53,0.84,13,,154,15,0.97,,,0.846,,0.867,40.839654,-73.911386
THE_FAMILY_SCHOOL,9X443,9,1456,0.898,2797.3,0.99,0.94,0.66,0.1,0.92,0.31,0.95,0.93,0.9,0.82,0.83,0.94,2.24,2.22,0.13,3,,242,15,0.62,,,0.333,0.67,0.333,40.832033,-73.917519
GRANT_AVENUE_ELEMENTARY_SCHOOL,9X449,9,1456,0.876,2637.44,0.99,0.92,0.62,0.1,0.93,0.24,0.93,0.9,0.88,0.89,0.9,0.94,2.1,2.22,0.32,6,,194,8,0.41,,,,,,40.828111,-73.917661
SCIENCE_AND_TECHNOLOGY_ACADEMY:_A_MOTT_HALL_SCHOOL,9X454,9,1456,0.86,,0.99,0.96,0.7,0.1,0.92,0.29,0.96,0.98,0.95,0.98,0.84,0.98,2.58,2.71,0.75,3,,415,54,0.13,,,0.9,,0.926,40.828111,-73.917661
SHERIDAN_ACADEMY_FOR_YOUNG_LEADERS,9X457,9,1456,0.99,33.35,0.99,0.97,0.67,0.1,0.91,0.38,0.9,0.92,0.84,0.81,0.87,0.92,2.14,2.35,0.18,5,,285,21,0.74,,,1,,1,40.832033,-73.917519
"BRONX_SCHOOL_FOR_LAW,_GOVERNMENT_AND_JUSTICE",9X55,9,1451,0.83,,0.99,0.96,0.71,0.1,0.95,0.14,0.82,0.8,0.8,0.76,0.71,0.85,2.63,2.63,0.8,21,,263,16,0.61,,0.48,0.619,,0.563,40.827572,-73.918927
MOUNT_EDEN_CHILDREN'S_ACADEMY,9X555,9,1452,0.833,28339.16,0.99,0.99,0.78,0.1,0.96,0.9,0.96,0.97,0.99,0.95,0.91,0.99,,,0.34,4,,117,1,0.85,,,,,,40.842811,-73.916384
YOUNG_WOMEN'S_LEADERSHIP_SCHOOL_OF_THE_BRONX,9X568,9,1453,0.816,,0.99,0.97,0.58,0.1,0.94,0.17,0.94,0.98,0.86,0.98,0.84,0.94,2.68,2.8,0.12,22,,216,27,0.125,,,0.864,,0.926,40.848521,-73.908447
P.S._3_RAUL_JULIA_MICRO_SOCIETY,1X3,1,1457,0.864,25544.48,1,0.97,0.68,,0.91,0.37,0.97,0.9,0.87,0.83,0.83,0.91,2.35,2.54,0.57,1,,175,14,0.8,,,0.2,,0.71,40.850163,-73.891656
MILTON_FEIN_SCHOOL,1X7,1,1463,0.746,41223.11,0.91,0.85,0.79,0.9,0.96,0.5,0.97,0.97,0.98,0.92,0.88,0.99,2.63,2.97,0.216,1,0.13,476,141,0.296,0.135,,0.74,0.28,0.759,40.881668,-73.905862
P.S._8_ISAAC_VARIAN,1X8,1,1458,0.8,3361.34,0.93,0.88,0.77,0.7,0.93,0.29,0.89,0.9,0.93,0.8,0.79,0.92,2.43,2.64,0.48,24,0.83,57,55,0.18,0.91,,0.917,0.55,0.927,40.872553,-73.883365
P.S._9_RYER_AVENUE_ELEMENTARY_SCHOOL,1X9,1,1458,0.923,26516.8,0.99,0.96,0.8,0.1,0.9,0.4,0.91,0.87,0.88,0.71,0.83,0.88,2.16,2.39,0.42,16,,388,28,0.72,,,0.875,0.71,0.821,40.856803,-73.898907
P.S._X15_INSTITUTE_FOR_ENVIRONMENTAL_LEARNING,1X15,1,1453,0.852,28779.66,1,0.98,0.85,,0.95,0.16,0.86,0.86,0.85,0.79,0.84,0.91,2.57,2.84,0.16,35,,331,62,0.187,,,0.571,,0.548,40.859165,-73.909733
"P.S./M.S._2_P.O.GEORGE_J._WERDANN,_III",1X2,1,1458,0.86,34155.6,0.92,0.82,0.73,0.8,0.92,0.29,0.88,0.82,0.84,0.69,0.75,0.85,2.32,2.34,0.46,31,0.97,684,21,0.31,0.95,,0.484,,0.619,40.869618,-73.879012
P.S._23_THE_NEW_CHILDREN'S_SCHOOL,1X23,1,1457,0.95,24966.63,0.99,0.99,0.62,0.1,0.91,0.34,0.79,0.89,0.82,0.78,0.81,0.91,2.13,2.14,0.17,4,,245,11,0.45,,,1,,1,40.85336,-73.894798
P.S._24_SPUYTEN_DUYVIL,1X24,1,1463,0.227,8132.51,0.61,0.48,0.42,0.39,0.94,0.13,0.82,0.71,0.86,0.57,0.85,0.77,2.87,3.9,0.218,95,0.537,433,141,0.326,0.54,,0.147,,0.156,40.887662,-73.91357
P.S._32_BELMONT,1X32,1,1458,0.925,22737.12,0.97,0.96,0.71,0.3,0.93,0.28,0.97,0.96,0.96,0.89,0.84,0.97,2.31,2.42,0.49,19,,393,24,0.61,,0.15,0.526,0.125,0.417,40.852095,-73.885739
P.S._33_TIMOTHY_DWIGHT,1X33,1,1468,0.91,27633.11,0.98,0.94,0.84,0.2,0.92,0.31,0.88,0.89,0.91,0.78,0.91,0.92,2.15,2.33,0.18,8,,464,29,0.63,,,0.75,0.69,0.793,40.861675,-73.901633
P.S._X37_-_MULTIPLE_INTELLIGENCE_SCHOOL,1X37,1,1463,0.752,6964.16,0.98,0.95,0.72,0.2,0.92,0.33,0.93,0.92,0.85,0.86,0.88,0.92,2.37,2.55,0.58,24,,415,53,0.128,,,0.625,0.113,0.679,40.87984,-73.910788
THOMAS_C._GIORDANO_MIDDLE_SCHOOL_45,1X45,1,1458,0.886,,0.96,0.94,0.78,0.4,0.91,0.32,0.87,0.86,0.82,0.75,0.73,0.88,2.27,2.15,0.23,16,,651,3,0.5,,,0.563,,0.667,40.858431,-73.887039
P.S._46_EDGAR_ALLAN_POE,1X46,1,1458,0.96,26555.51,0.98,0.95,0.8,0.2,0.92,0.29,0.9,0.87,0.89,0.76,0.81,0.92,2.8,2.24,0.31,16,,545,32,0.59,,,0.813,0.31,0.75,40.858431,-73.887039
P.S._51_BRONX_NEW_SCHOOL,1X51,1,1457,0.714,32539.98,0.98,0.96,0.59,0.2,0.94,0.21,0.99,0.9,0.98,0.84,0.83,0.96,2.49,2.54,0.69,6,,87,8,0.92,,,0.167,,0.125,40.850632,-73.88653
P.S./I.S._54,1X54,1,1458,0.896,24568.96,0.99,0.97,0.7,0.1,0.92,0.25,0.91,0.87,0.88,0.79,0.84,0.9,2.27,2.2,0.28,6,,219,2,0.9,,,0.333,,,40.864937,-73.887793
P.S._56_NORWOOD_HEIGHTS,1X56,1,1467,0.821,36131.36,0.94,0.71,0.63,0.6,0.93,0.25,0.97,0.93,0.93,0.88,0.82,0.95,2.7,3.1,0.14,38,0.15,374,7,0.187,0.71,,0.684,0.14,0.771,40.872439,-73.875912
P.S._59_THE_COMMUNITY_SCHOOL_OF_TECHNOLOGY,1X59,1,1457,0.934,2246.2,0.99,0.96,0.68,0.1,0.91,0.38,0.94,0.94,0.92,0.89,0.92,0.96,2.13,2.3,0.7,2,,275,8,0.29,,,0.5,,0.375,40.85306,-73.893421
J.H.S._8_THE_MOSHOLU_PARKWAY,1X8,1,1467,0.827,,0.95,0.81,0.67,0.5,0.89,0.38,0.87,0.79,0.81,0.7,0.74,0.84,2.16,2.7,0.19,11,,561,21,0.37,,,0.99,0.95,0.952,40.876823,-73.88124
P.S._81_ROBERT_J._CHRISTEN,1X81,1,1471,0.357,71366.79,0.7,0.59,0.49,0.3,0.94,0.17,0.93,0.92,0.99,0.83,0.9,0.96,2.81,3.8,0.189,44,0.523,231,77,0.333,0.442,,0.182,,0.26,40.903455,-73.904682
P.S._85_GREAT_EXPECTATIONS,1X85,1,1458,0.925,23548.89,1,0.98,0.69,,0.91,0.35,0.84,0.82,0.82,0.7,0.81,0.85,2.2,2.5,0.11,5,,489,1,0.2,,,0.8,0.2,1,40.858852,-73.894829
P.S._86_KINGSBRIDGE_HEIGHTS,1X86,1,1468,0.878,33865.7,0.99,0.94,0.86,0.1,0.94,0.2,0.95,0.95,0.93,0.88,0.83,0.96,2.47,2.8,0.111,95,,881,186,0.211,0.5,0.11,0.726,0.65,0.763,40.869847,-73.898263
P.S._91_BRONX,1X91,1,1453,0.93,29919.76,0.98,0.94,0.76,0.2,0.91,0.36,0.82,0.76,0.8,0.66,0.78,0.75,2.33,2.52,0.5,16,,331,29,0.88,,,0.875,0.69,0.897,40.858716,-73.907408
P.S._94_KINGS_COLLEGE_SCHOOL,1X94,1,1467,0.862,3344.63,0.97,0.84,0.68,0.3,0.91,0.34,0.86,0.86,0.88,0.74,0.82,0.93,2.17,2.22,0.22,12,,557,16,0.29,,,0.917,0.63,0.938,40.88051,-73.875267
P.S._95_SHEILA_MENCHER,1X95,1,1463,0.786,42357.53,0.96,0.87,0.7,0.4,0.92,0.29,0.85,0.71,0.84,0.63,0.87,0.82,2.41,2.41,0.47,37,,752,35,0.47,,,0.622,0.29,0.743,40.883022,-73.891672
J.H.S._118_WILLIAM_W._NILES,1X118,1,1457,0.843,,0.97,0.81,0.6,0.3,0.92,0.26,0.84,0.76,0.83,0.69,0.69,0.88,2.54,2.59,0.142,15,0.33,158,175,0.165,0.4,,0.853,,0.869,40.848559,-73.89257
RIVERDALE_/_KINGSBRIDGE_ACADEMY_(MIDDLE_SCHOOL_/_HIGH_SCHOOL_141),1X141,1,1463,0.418,,0.74,0.66,0.56,0.26,0.94,0.13,0.84,0.81,0.82,0.75,0.75,0.86,2.74,2.93,0.15,96,0.438,587,12,0.174,0.451,,0.281,0.1,0.314,40.887701,-73.913605
P.S._159_LUIS_MUNOZ_MARIN_BILING,1X159,1,1457,0.97,2337.95,0.99,0.98,0.9,0.1,0.93,0.26,0.99,0.99,0.96,0.93,0.93,1,2.33,2.43,0.7,6,,87,6,0.69,,,0.667,,0.667,40.855521,-73.893276
P.S._25_FIORELLO_LAGUARDIA,1X25,1,1458,0.887,2397.92,0.95,0.94,0.79,0.5,0.93,0.26,0.88,0.91,0.93,0.8,0.83,0.94,2.4,2.51,0.2,1,0.2,512,24,0.47,0.167,,0.8,0.42,0.833,40.855742,-73.881407
I.S._26_ANN_MERSEREAU,1X26,1,1468,0.99,,0.99,0.97,0.78,0.1,0.91,0.33,0.89,0.91,0.83,0.83,0.84,0.94,2.6,2.12,0.19,4,,225,2,0.9,,,0.75,,0.5,40.859604,-73.906275
THEATRE_ARTS_PRODUCTION_COMPANY_SCHOOL,1X225,1,1457,0.86,,0.98,0.95,0.68,0.2,0.92,0.26,0.84,0.87,0.81,0.8,0.76,0.91,2.38,2.48,0.44,8,,178,1,0.56,,,0.625,,0.6,40.854655,-73.897036
P.S._226,1X226,1,1453,0.93,325.5,1,0.98,0.76,,0.93,0.23,0.82,0.8,0.86,0.7,0.81,0.85,2.22,2.34,0.41,9,,232,15,0.65,,,,,0.267,40.855568,-73.91622
JONAS_BRONCK_ACADEMY,1X228,1,1458,0.821,,0.98,0.91,0.72,0.2,0.98,0.2,0.91,0.92,0.92,0.86,0.86,0.94,2.7,2.66,0.15,27,,257,16,0.62,,,0.889,,1,40.861305,-73.891283
WEST_BRONX_ACADEMY_FOR_THE_FUTURE,1X243,1,1458,0.851,,0.98,0.95,0.75,0.2,0.92,0.25,0.84,0.85,0.81,0.82,0.74,0.89,2.35,2.32,0.3,7,,28,1,0.5,,,,,,40.859516,-73.88858
THE_NEW_SCHOOL_FOR_LEADERSHIP_AND_JOURNALISM,1X244,1,1463,0.85,,0.97,0.94,0.83,0.3,0.93,0.24,0.92,0.88,0.89,0.86,0.84,0.92,2.51,2.49,0.74,53,0.94,683,48,0.7,0.21,,0.868,0.42,0.896,40.875451,-73.901516
P.S._246_POE_CENTER,1X246,1,1468,0.88,34941.39,0.98,0.95,0.85,0.2,0.92,0.3,0.81,0.82,0.86,0.67,0.84,0.91,2.13,2.3,0.9,3,,358,14,0.39,0.71,,1,0.71,1,40.865975,-73.895314
I.S._254,1X254,1,1458,0.885,,0.99,0.95,0.78,0.1,0.91,0.3,0.77,0.83,0.83,0.74,0.76,0.88,2.2,2.25,0.21,9,,448,27,0.6,,,0.667,0.37,0.667,40.858858,-73.889841
"P.S._279_CAPTAIN_MANUEL_RIVERA,_JR.",1X279,1,1453,0.918,26313.1,1,0.96,0.79,,0.93,0.26,0.9,0.92,0.88,0.89,0.87,0.93,2.26,2.33,0.3,2,,694,4,0.58,,,0.85,0.25,0.7,40.854751,-73.905024
P.S./M.S._28_MOSHOLU_PARKWAY,1X28,1,1467,0.837,37116.54,0.95,0.83,0.74,0.5,0.93,0.22,0.95,0.92,0.96,0.84,0.81,0.94,2.48,2.66,0.57,34,0.59,596,57,0.96,0.53,,0.559,,0.614,40.877179,-73.881546
P.S._291,1X291,1,1453,0.923,24753.36,1,0.99,0.88,,0.91,0.3,0.97,0.96,0.97,0.93,0.86,0.98,2.4,2.67,0.82,26,,327,44,0.135,,0.38,0.88,0.91,0.659,40.859165,-73.909733
P.S._36,1X36,1,1453,0.91,2344.61,0.99,0.98,0.7,0.1,0.92,0.27,0.86,0.76,0.88,0.69,0.84,0.85,2.19,2.3,0.3,11,,383,13,0.34,,,0.545,0.154,0.769,40.851349,-73.910712
LUISA_PINEIRO_FUENTES_SCHOOL_OF_SCIENCE_AND_DISCOVERY,1X37,1,1468,0.836,35736.86,0.99,0.91,0.82,0.1,0.95,0.16,0.91,0.93,0.9,0.85,0.84,0.96,2.27,2.43,0.3,5,,167,1,0.6,,,0.8,,0.6,40.869145,-73.901836
BRONX_DANCE_ACADEMY_SCHOOL,1X38,1,1467,0.824,,0.99,0.97,0.77,0.1,0.94,0.18,0.89,0.86,0.86,0.74,0.73,0.86,2.52,2.54,0.5,13,,222,7,0.32,,,0.846,,0.714,40.885328,-73.878058
P.S._31_MARBLE_HILL,1X31,1,1463,0.874,36529.19,0.97,0.95,0.85,0.3,0.93,0.21,0.93,0.84,0.92,0.74,0.82,0.86,2.23,2.56,0.27,9,,341,32,0.94,,,0.444,0.63,0.25,40.872481,-73.905299
P.S._315_LAB_SCHOOL,1X315,1,1453,0.868,26738.54,0.99,0.98,0.82,0.1,0.94,0.19,0.95,0.93,0.8,0.9,0.87,0.89,2.46,2.61,0.125,24,,192,2,0.14,,,0.292,,0.4,40.857969,-73.903757
THE_BRONX_SCHOOL_OF_YOUNG_LEADERS,1X331,1,1453,0.894,,0.99,0.98,0.74,0.1,0.94,0.2,0.85,0.86,0.85,0.81,0.84,0.9,2.2,2.14,0.21,7,,355,9,0.25,,,0.714,0.111,0.778,40.851349,-73.910712
P.S._34,1X34,1,1468,0.99,33837.87,0.98,0.94,0.85,0.2,0.92,0.3,0.9,0.95,0.93,0.86,0.83,0.97,2.29,2.52,0.33,9,,284,25,0.88,,,0.667,,0.8,40.869429,-73.897161
INTERNATIONAL_SCHOOL_FOR_LIBERAL_ARTS,1X342,1,1468,0.857,,1,1,0.99,,0.97,0.8,0.91,0.93,0.87,0.88,0.82,0.92,2.15,2.18,0.22,3,,146,1,0.7,,,1,,1,40.870295,-73.897019
AMPARK_NEIGHBORHOOD,1X344,1,1463,0.421,54446.9,0.8,0.73,0.6,0.2,0.94,0.11,0.95,0.95,0.94,0.91,0.91,0.96,2.74,2.95,0.133,25,0.24,19,47,0.247,0.34,,0.28,,0.319,40.883022,-73.891672
P.S._36,1X36,1,1463,0.794,39138.83,0.97,0.95,0.84,0.3,0.91,0.31,0.88,0.82,0.9,0.67,0.79,0.86,2.22,2.13,0.49,9,,188,6,0.32,,,0.556,,0.5,40.874718,-73.902209
ACADEMY_FOR_PERSONAL_LEADERSHIP_AND_EXCELLENCE,1X363,1,1468,0.886,,0.99,0.96,0.85,0.1,0.92,0.27,0.92,0.91,0.87,0.9,0.8,0.93,2.24,2.15,0.25,1,,41,,,,,0.1,,,40.859506,-73.900475
IN-TECH_ACADEMY_(M.S._/_HIGH_SCHOOL_368),1X368,1,1463,0.749,,0.96,0.91,0.82,0.4,0.94,0.22,0.77,0.73,0.81,0.64,0.71,0.84,2.37,2.28,0.86,36,0.28,417,25,0.6,,,0.861,,0.84,40.87956,-73.909674
"ELEMENTARY_SCHOOL_FOR_MATH,_SCIENCE,_AND_TECHNOLOGY",1X382,1,1453,0.918,23846.2,1,0.99,0.75,,0.94,0.2,0.91,0.89,0.9,0.85,0.78,0.93,2.23,2.3,0.38,5,,14,9,0.64,,,,,,40.855211,-73.903264
SCHOOL_FOR_ENVIRONMENTAL_CITIZENSHIP,1X386,1,1453,0.931,23981.38,0.99,0.98,0.83,0.1,0.93,0.23,0.83,0.83,0.89,0.72,0.83,0.86,2.23,2.25,0.28,6,,219,6,0.27,,,1,,1,40.855211,-73.903264
M.S._39,1X39,1,1453,0.911,,0.99,0.98,0.85,0.1,0.93,0.24,0.84,0.84,0.82,0.8,0.77,0.86,2.15,2.13,0.7,3,,422,6,0.14,,,1,,1,40.854367,-73.913024
THE_ANGELO_PATRI_MIDDLE_SCHOOL,1X391,1,1457,0.911,,0.99,0.97,0.72,0.1,0.9,0.35,0.86,0.84,0.82,0.78,0.8,0.88,2.9,1.98,0.18,8,,478,15,0.31,,0.125,0.875,0.67,0.867,40.854655,-73.897036
P.S._396,1X396,1,1453,0.893,28539.68,0.98,0.98,0.76,0.2,0.93,0.23,0.86,0.87,0.87,0.81,0.87,0.9,2.3,2.38,0.39,6,,157,1,0.64,,,0.667,,0.6,40.854367,-73.913024
CRESTON_ACADEMY,1X447,1,1453,0.898,,0.99,0.96,0.84,0.1,0.92,0.26,0.91,0.93,0.86,0.9,0.87,0.93,2.3,2.33,0.43,19,,466,41,0.88,,,0.895,,0.854,40.855211,-73.903264
EAST_FORDHAM_ACADEMY_FOR_THE_ARTS,1X459,1,1468,0.881,,0.99,0.97,0.84,0.1,0.92,0.27,0.77,0.78,0.83,0.71,0.78,0.83,2.14,1.97,0.2,6,,39,1,0.3,,,0.833,1,1,40.859506,-73.900475
P.S._16_WAKEFIELD,11X16,11,147,0.772,45746.42,0.98,0.86,0.28,0.2,0.9,0.37,0.9,0.87,0.9,0.81,0.85,0.88,2.25,2.37,0.46,1,,222,11,0.5,,,0.2,,0.91,40.90237,-73.854546
P.S._19_JUDITH_K._WEISS,11X19,11,147,0.35,6284.53,0.41,0.36,0.28,0.59,0.95,0.9,0.96,0.96,0.89,0.94,0.83,0.95,2.81,2.98,0.16,52,0.654,324,62,0.191,0.677,,0.538,,0.484,40.899321,-73.867223
P.S._21_PHILIP_H._SHERIDAN,11X21,11,1466,0.783,36662.41,0.99,0.94,0.24,0.1,0.9,0.39,0.88,0.91,0.86,0.76,0.79,0.93,2.23,2.31,0.13,4,,31,1,0.32,,,0.75,,0.7,40.88794,-73.859406
P.S._41_GUN_HILL_ROAD,11X41,11,1467,0.833,35475.19,0.98,0.96,0.43,0.2,0.9,0.39,0.97,0.95,0.94,0.92,0.87,0.96,2.42,2.57,0.62,3,,49,49,0.1,,,0.767,,0.592,40.874682,-73.867877
P.S._68_BRONX,11X68,11,1466,0.617,58477.18,0.99,0.95,0.19,0.1,0.93,0.23,0.87,0.81,0.87,0.7,0.82,0.8,2.34,2.45,0.46,17,,37,23,0.62,,,0.588,,0.348,40.891483,-73.838736
P.S._76_THE_BENNINGTON_SCHOOL,11X76,11,1469,0.716,4759.79,0.92,0.87,0.42,0.8,0.93,0.25,0.88,0.79,0.88,0.67,0.83,0.85,2.25,2.36,0.27,14,0.143,518,24,0.46,0.83,,0.786,0.42,0.583,40.869164,-73.860906
P.S._78_ANNE_HUTCHINSON,11X78,11,1469,0.759,525.2,0.96,0.94,0.22,0.4,0.91,0.34,0.89,0.9,0.91,0.77,0.8,0.89,2.21,2.3,0.4,14,,357,21,0.59,,,0.857,0.48,0.857,40.878465,-73.85058
P.S._83_DONALD_HERTZ,11X83,11,1462,0.611,51523.99,0.68,0.58,0.49,0.32,0.95,0.11,0.85,0.87,0.84,0.76,0.77,0.87,2.6,2.76,0.113,132,0.326,1161,196,0.169,0.367,,0.333,0.5,0.357,40.849167,-73.858861
P.S._87_BRONX,11X87,11,1466,0.688,528.62,0.99,0.87,0.16,0.1,0.94,0.18,0.91,0.85,0.84,0.82,0.82,0.92,2.32,2.51,0.45,14,,318,27,0.85,,,0.857,,0.926,40.895363,-73.845825
P.S._89_BRONX,11X89,11,1469,0.737,42125.55,0.83,0.76,0.54,0.17,0.93,0.22,0.88,0.85,0.82,0.82,0.78,0.87,2.3,2.29,0.53,43,0.29,769,6,0.78,0.233,0.47,0.651,0.33,0.65,40.862563,-73.859202
P.S._96_RICHARD_RODGERS,11X96,11,1467,0.774,38623.61,0.91,0.86,0.61,0.9,0.91,0.32,0.95,0.94,0.96,0.86,0.82,0.94,2.41,2.64,0.8,38,0.158,486,54,0.111,0.222,,0.526,,0.5,40.861185,-73.868521
P.S._97_BRONX,11X97,11,1469,0.541,66488.21,0.84,0.65,0.36,0.16,0.94,0.2,0.93,0.81,0.92,0.68,0.87,0.86,2.53,2.71,0.79,26,0.38,331,37,0.112,0.54,,0.731,0.27,0.757,40.863072,-73.846947
P.S._13_HECTOR_FONTANEZ,11X13,11,1466,0.813,32671.9,0.97,0.9,0.37,0.3,0.91,0.35,0.94,0.94,0.94,0.88,0.81,0.95,2.34,2.31,0.38,2,,54,21,0.39,,,0.85,,0.81,40.892319,-73.861898
P.S._15_SEN_ABRAHAM_BERNSTEIN,11X15,11,1462,0.82,412.93,0.87,0.77,0.66,0.13,0.93,0.23,0.88,0.77,0.88,0.64,0.73,0.8,2.42,2.58,0.69,44,0.114,66,77,0.117,0.143,0.23,0.75,0.39,0.85,40.852767,-73.866401
P.S._16_PARKCHESTER,11X16,11,1462,0.76,44552.48,0.96,0.61,0.35,0.4,0.93,0.23,0.94,0.92,0.92,0.85,0.82,0.94,2.54,2.76,0.73,39,0.51,55,74,0.135,0.14,,0.436,0.54,0.554,40.837105,-73.85484
P.S._18_PHILIP_J._ABINANTI,11X18,11,1461,0.55,53439.93,0.63,0.5,0.44,0.37,0.94,0.17,0.92,0.8,0.93,0.67,0.79,0.84,2.72,2.92,0.111,27,0.333,25,51,0.24,0.353,,0.63,0.39,0.667,40.854535,-73.852919
P.S._111_SETON_FALLS,11X111,11,1466,0.779,39415.18,0.99,0.97,0.36,0.1,0.91,0.34,0.78,0.64,0.79,0.5,0.77,0.73,2.12,2.15,0.15,5,,339,9,0.27,,,0.6,,0.778,40.884355,-73.839263
P.S._112_BRONXWOOD,11X112,11,1466,0.94,2679.85,0.98,0.98,0.5,0.2,0.91,0.44,0.9,0.94,0.91,0.87,0.85,0.96,2.8,2.9,,,,171,1,0.6,,,,,1,40.884792,-73.843995
P.S._121_THROOP,11X121,11,1469,0.666,44929.61,0.96,0.88,0.26,0.4,0.93,0.26,0.91,0.83,0.95,0.66,0.8,0.85,2.45,2.69,0.78,34,,437,67,0.153,,,0.412,,0.478,40.866944,-73.850467
J.H.S._127_THE_CASTLE_HILL,11X127,11,1462,0.716,,0.96,0.64,0.41,0.4,0.94,0.17,0.9,0.93,0.84,0.89,0.76,0.93,2.49,2.62,0.74,52,,681,39,0.57,,,0.654,0.154,0.769,40.838494,-73.853201
J.H.S._144_MICHELANGELO,11X144,11,1469,0.691,,0.98,0.94,0.29,0.2,0.9,0.33,0.89,0.91,0.83,0.84,0.73,0.86,2.29,2.1,0.39,18,,429,6,0.14,,,0.611,0.167,0.833,40.86429,-73.836566
P.S._153_HELEN_KELLER,11X153,11,1475,0.443,47216.26,0.95,0.84,0.25,0.5,0.95,0.15,0.9,0.91,0.9,0.84,0.85,0.96,2.77,3.1,0.24,76,0.13,37,99,0.268,0.4,,0.526,,0.586,40.873045,-73.833345
P.S._16_WALT_DISNEY,11X16,11,1475,0.512,5132.5,0.98,0.93,0.33,0.2,0.94,0.18,0.91,0.9,0.93,0.82,0.83,0.94,2.31,2.25,0.6,1,,169,1,0.6,,,0.7,,1,40.864136,-73.82396
BAYCHESTER_ACADEMY,11X169,11,1466,0.672,5424.91,0.98,0.93,0.21,0.2,0.94,0.21,0.96,0.93,0.96,0.88,0.86,0.91,2.5,2.73,0.15,2,,193,43,0.223,,,0.7,,0.698,40.880961,-73.839642
P.S._175_CITY_ISLAND,11X175,11,1464,0.247,7313.77,0.46,0.38,0.29,0.54,0.95,0.13,0.93,0.96,0.85,0.88,0.87,0.9,2.86,3.3,0.124,26,0.654,21,53,0.252,0.736,,0.154,,0.264,40.84379,-73.784691
P.S._178_-_DR._SELMAN_WAKSMAN,11X178,11,1475,0.535,44313.87,0.96,0.91,0.27,0.4,0.95,0.15,0.93,0.83,0.88,0.75,0.78,0.88,2.41,2.6,0.45,12,0.83,268,19,0.71,0.53,,0.583,,0.632,40.875146,-73.833095
M.S._18_DR._DANIEL_HALE_WILLIAMS,11X18,11,1475,0.54,,0.97,0.92,0.23,0.3,0.95,0.13,0.87,0.94,0.86,0.9,0.94,0.94,2.71,2.71,0.13,18,0.28,826,11,0.133,0.18,,0.63,,0.691,40.873204,-73.832178
I.S._181_PABLO_CASALS,11X181,11,1475,0.534,,0.96,0.89,0.26,0.4,0.93,0.21,0.87,0.9,0.86,0.84,0.77,0.91,2.66,2.67,0.129,16,0.28,88,15,0.186,0.2,,0.67,,0.673,40.874988,-73.832178
CORNERSTONE_ACADEMY_FOR_SOCIAL_ACTION,11X189,11,1475,0.742,43493.31,0.98,0.96,0.41,0.2,0.92,0.3,0.88,0.92,0.84,0.88,0.84,0.94,2.37,2.54,0.19,3,,161,1,0.62,,,0.333,,0.7,40.883064,-73.830908
P.S./M.S._194,11X194,11,1462,0.764,45253.24,0.96,0.61,0.53,0.4,0.95,0.16,0.92,0.87,0.85,0.79,0.76,0.88,2.5,2.82,0.81,73,0.14,882,132,0.15,0.15,,0.548,0.8,0.591,40.835236,-73.846547
NORTH_BRONX_SCHOOL_OF_EMPOWERMENT,11X287,11,1467,0.737,,0.99,0.92,0.33,0.1,0.89,0.39,0.86,0.84,0.78,0.84,0.73,0.88,2.15,1.97,0.41,9,,223,3,0.13,,,0.667,,0.333,40.880634,-73.860155
THE_YOUNG_SCHOLARS_ACADEMY_OF_THE_BRONX,11X289,11,1467,0.731,,0.98,0.95,0.25,0.2,0.91,0.33,0.9,0.9,0.74,0.82,0.75,0.88,2.16,2.9,0.7,2,,29,3,0.1,,,,,1,40.880634,-73.860155
BRONX_GREEN_MIDDLE_SCHOOL,11X326,11,1467,0.778,,0.91,0.83,0.57,0.9,0.92,0.27,0.91,0.92,0.85,0.88,0.78,0.93,2.28,2.26,0.35,13,,345,14,0.41,0.214,,0.923,0.71,0.929,40.86206,-73.864588
BRONX_ALLIANCE_MIDDLE_SCHOOL,11X355,11,1466,0.729,,0.98,0.92,0.31,0.2,0.93,0.26,0.84,0.89,0.82,0.82,0.84,0.92,2.8,2.8,0.17,6,,35,2,0.6,,,1,,1,40.886043,-73.840576
LEADERS_OF_TOMORROW,11X37,11,1467,0.771,,0.97,0.9,0.4,0.3,0.88,0.46,0.93,0.88,0.81,0.88,0.77,0.91,2.13,2.6,0.28,6,,21,1,0.5,,,1,,1,40.880634,-73.860155
CORNERSTONE_ACADEMY_FOR_SOCIAL_ACTION_MIDDLE_SCHOOL_(CASA),11X462,11,1475,0.631,,0.98,0.97,0.29,0.2,0.93,0.22,0.91,0.84,0.86,0.79,0.78,0.9,2.49,2.53,0.13,17,,163,14,0.86,,,0.882,,0.786,40.883064,-73.830908
PELHAM_ACADEMY_OF_ACADEMICS_AND_COMMUNITY_ENGAGEMENT,11X468,11,1467,0.75,,0.9,0.82,0.64,0.1,0.93,0.17,0.86,0.93,0.9,0.89,0.83,0.9,2.46,2.36,0.65,21,0.143,34,19,0.56,,,0.667,,0.632,40.86206,-73.864588
P.S./M.S._11X498_-_VAN_NEST_ACADEMY,11X498,11,1462,0.647,45355.72,0.86,0.78,0.65,0.14,0.95,0.1,0.91,0.88,0.87,0.86,0.82,0.9,2.65,2.76,0.1,45,0.133,449,56,0.125,0.214,,0.756,,0.679,40.845031,-73.857976
ONE_WORLD_MIDDLE_SCHOOL_AT_EDENWALD,11X529,11,1466,0.71,,0.98,0.93,0.32,0.2,0.93,0.24,0.89,0.9,0.84,0.88,0.79,0.93,2.34,2.31,0.32,1,,38,21,0.68,,,0.7,,0.81,40.886043,-73.840576
BAYCHESTER_MIDDLE_SCHOOL,11X532,11,1466,0.72,,0.99,0.95,0.27,0.1,0.93,0.26,0.85,0.83,0.89,0.8,0.8,0.84,2.25,2.52,0.11,3,,279,7,0.25,,,0.667,,0.714,40.886043,-73.840576
BRONX_PARK_MIDDLE_SCHOOL,11X556,11,1467,0.77,,0.91,0.83,0.57,0.9,0.92,0.27,0.89,0.88,0.8,0.83,0.84,0.9,2.19,2.15,0.39,15,0.67,39,16,0.41,0.188,,0.733,0.125,0.813,40.86206,-73.864588
PELHAM_GARDENS_MIDDLE_SCHOOL,11X566,11,1469,0.714,,0.98,0.95,0.27,0.2,0.92,0.31,0.84,0.91,0.87,0.88,0.78,0.94,2.29,2.22,0.34,15,,45,6,0.13,,,0.467,,0.667,40.86429,-73.836566
LINDEN_TREE_ELEMENTARY_SCHOOL,11X567,11,1462,,4689.41,0.97,0.8,0.64,0.3,,,,,,,,,,,0.17,1,,65,2,0.31,,,,,,40.838494,-73.853201
P.S._6_WEST_FARMS,12X6,12,146,0.932,232.82,0.99,0.97,0.72,0.1,0.89,0.45,0.89,0.88,0.83,0.67,0.82,0.88,2.12,2.22,0.25,6,,243,12,0.49,,,0.5,,0.417,40.840605,-73.88219
P.S._44_DAVID_C._FARRAGUT,12X44,12,1457,0.919,25112.45,0.99,0.98,0.68,0.1,0.9,0.4,0.94,0.73,0.72,0.51,0.81,0.74,2.26,2.35,0.9,1,,119,8,0.67,,,,,,40.842605,-73.890915
P.S._47_JOHN_RANDOLPH,12X47,12,1472,0.856,33612.34,0.98,0.84,0.68,0.2,0.93,0.24,0.97,0.94,0.96,0.84,0.85,0.94,2.3,2.28,0.13,7,,579,3,0.52,,,0.857,0.67,0.933,40.832525,-73.866982
P.S._57_CRESCENT,12X57,12,1457,0.899,26933.86,0.99,0.95,0.71,0.1,0.9,0.42,0.95,0.95,0.95,0.88,0.84,0.94,2.28,2.33,0.31,7,,23,6,0.26,,,0.714,,0.5,40.848711,-73.888912
P.S._61_FRANCISCO_OLLER,12X61,12,146,0.87,2419.42,1,0.99,0.76,,0.94,0.17,0.94,0.87,0.92,0.71,0.89,0.77,2.17,2.44,0.21,3,,145,3,0.21,,,1,,1,40.836359,-73.89275
P.S._66_SCHOOL_OF_HIGHER_EXPECTATIONS,12X66,12,146,0.892,27311.75,0.98,0.98,0.71,0.2,0.92,0.31,0.87,0.85,0.87,0.69,0.82,0.87,2.2,2.2,0.22,6,,278,14,0.5,,,0.833,0.71,0.786,40.831394,-73.886584
P.S._67_MOHEGAN_SCHOOL,12X67,12,146,0.98,21576.71,1,0.99,0.74,,0.91,0.38,0.87,0.84,0.85,0.73,0.8,0.79,2.19,2.3,0.35,9,,26,8,0.31,,,0.667,,0.875,40.843884,-73.884317
P.S._92_BRONX,12X92,12,1457,0.923,24153.23,0.99,0.96,0.77,0.1,0.9,0.42,0.82,0.78,0.81,0.65,0.85,0.85,2,1.9,0.5,1,,187,1,0.5,,,,,1,40.846335,-73.889323
J.H.S._98_HERMAN_RIDDER,12X98,12,146,0.865,,0.98,0.96,0.67,0.2,0.9,0.35,0.85,0.9,0.76,0.87,0.91,0.92,2.7,2.15,0.13,2,,151,5,0.33,,,,0.2,0.2,40.835821,-73.890983
M.S._129_ACADEMY_FOR_INDEPENDENT_LEARNING_AND_LEADERSHIP,12X129,12,146,0.91,,0.99,0.95,0.63,0.1,0.92,0.28,0.89,0.92,0.86,0.88,0.83,0.94,2.26,2.25,0.59,28,,48,33,0.69,,,1,,0.939,40.845682,-73.886532
P.S._134_GEORGE_F._BRISTOW,12X134,12,1459,0.889,25141.36,0.98,0.96,0.5,0.2,0.91,0.37,0.83,0.84,0.87,0.72,0.82,0.84,2.33,2.35,0.3,9,,297,12,0.4,,,,0.83,,40.831595,-73.894227
P.S._15_CHARLES_JAMES_FOX,12X15,12,1459,0.877,24836.47,0.99,0.97,0.76,0.1,0.91,0.35,0.92,0.91,0.9,0.81,0.84,0.93,2.19,2.26,0.36,14,,46,2,0.49,,,0.143,0.15,0.5,40.826198,-73.894273
E.S.M.T-_I.S._19,12X19,12,146,0.852,,0.99,0.96,0.71,0.1,0.93,0.24,0.87,0.84,0.8,0.74,0.77,0.82,2.25,2.22,0.41,9,,214,5,0.23,,,0.778,,1,40.836359,-73.89275
P.S._195,12X195,12,1472,0.913,27483.68,1,0.96,0.8,,0.92,0.29,0.9,0.91,0.89,0.82,0.85,0.92,2.7,2.19,0.14,6,,438,7,0.16,,,0.667,,0.714,40.830906,-73.877497
P.S._196,12X196,12,1472,0.859,27834.71,0.99,0.95,0.78,0.1,0.93,0.27,0.82,0.74,0.79,0.69,0.76,0.77,2.24,2.39,0.28,12,,452,23,0.51,,,0.75,0.87,0.69,40.830906,-73.877497
P.S._211,12X211,12,1457,0.869,23881.24,0.99,0.98,0.84,0.1,0.92,0.3,0.87,0.79,0.86,0.65,0.82,0.81,2.22,2.36,0.22,7,,36,29,0.81,,,0.143,0.69,0.759,40.84385,-73.890063
P.S._212,12X212,12,1456,0.891,26962.88,0.99,0.95,0.61,0.1,0.91,0.35,0.89,0.9,0.84,0.84,0.78,0.9,2.15,2.26,0.19,5,,275,6,0.22,,,0.6,,0.333,40.828715,-73.900452
P.S._214,12X214,12,146,0.867,26979.39,0.99,0.95,0.7,0.1,0.91,0.33,0.85,0.89,0.82,0.86,0.78,0.9,2.24,2.36,0.41,27,,647,48,0.74,,,0.741,,0.78,40.839183,-73.88028
SCHOOL_OF_PERFORMING_ARTS,12X217,12,1459,0.87,,0.99,0.96,0.67,0.1,0.9,0.38,0.79,0.77,0.71,0.73,0.82,0.82,2.11,1.98,0.7,2,,285,2,0.7,,,1,,1,40.822084,-73.894038
MOTT_HALL_V,12X242,12,1472,0.795,,0.99,0.94,0.76,0.1,0.94,0.22,0.82,0.87,0.89,0.8,0.74,0.92,2.36,2.31,0.38,11,,293,7,0.24,,,0.818,,1,40.831694,-73.877464
BRONX_LATIN,12X267,12,1456,0.835,,1,0.98,0.77,,0.94,0.13,0.93,0.97,0.91,0.96,0.87,0.96,2.34,2.33,0.75,17,,184,6,0.33,,,,,0.667,40.827387,-73.900529
EAST_BRONX_ACADEMY_FOR_THE_FUTURE,12X271,12,146,0.853,,0.99,0.98,0.72,0.1,0.87,0.48,0.85,0.91,0.84,0.92,0.75,0.93,2.23,2.16,0.26,6,,234,9,0.38,,,0.5,,1,40.836839,-73.887671
FREDERICK_DOUGLASS_ACADEMY_V._MIDDLE_SCHOOL,12X273,12,1457,0.823,,0.99,0.97,0.67,0.1,0.9,0.37,0.81,0.92,0.8,0.89,0.78,0.92,2.25,2.19,0.21,5,,235,8,0.34,,,0.8,,0.875,40.848711,-73.888912
FANNIE_LOU_HAMER_MIDDLE_SCHOOL,12X286,12,146,0.843,,0.99,0.97,0.71,0.1,0.92,0.2,0.89,0.94,0.86,0.93,0.8,0.94,2.23,2.17,0.3,7,,242,5,0.21,,,1,,1,40.831394,-73.886584
THE_SCHOOL_OF_SCIENCE_AND_APPLIED_LEARNING,12X3,12,1457,0.917,2163.69,0.99,0.98,0.59,0.1,0.89,0.46,0.93,0.94,0.91,0.9,0.88,0.96,2.15,2.18,0.15,4,,272,6,0.22,,,0.75,,0.667,40.84624,-73.887388
FAIRMONT_NEIGHBORHOOD_SCHOOL,12X314,12,146,0.879,24333.94,0.98,0.98,0.57,0.2,0.91,0.36,0.7,0.76,0.9,0.67,0.82,0.84,,,,,,115,,,,,,,,40.834237,-73.887144
KAPPA_III,12X316,12,146,0.841,,0.98,0.95,0.65,0.2,0.94,0.19,0.92,0.93,0.86,0.89,0.8,0.94,2.43,2.52,0.53,18,,342,35,0.12,,,0.833,,0.914,40.845682,-73.886532
"I.S._X318_MATH,_SCIENCE_&_TECHNOLOGY_THROUGH_ARTS",12X318,12,1457,0.878,,0.98,0.97,0.7,0.2,0.88,0.38,0.85,0.79,0.83,0.73,0.79,0.9,2.15,2.16,0.4,1,,26,4,0.15,,,,,,40.84385,-73.890063
ACCION_ACADEMY,12X341,12,1457,0.93,,0.97,0.95,0.69,0.3,0.88,0.4,0.85,0.91,0.83,0.87,0.8,0.92,2.2,2.7,0.49,7,,14,3,0.21,,,0.857,,0.667,40.842605,-73.890915
URBAN_ASSEMBLY_SCHOOL_FOR_WILDLIFE_CONSERVATION,12X372,12,146,0.89,,0.98,0.96,0.69,0.2,0.87,0.42,0.9,0.76,0.83,0.62,0.78,0.79,2.27,2.24,0.11,2,,19,2,0.11,,,1,,1,40.843884,-73.884317
EMOLIOR_ACADEMY,12X383,12,146,0.839,,0.98,0.89,0.64,0.2,0.9,0.37,0.76,0.84,0.82,0.83,0.83,0.92,2.22,2.33,0.21,5,,239,5,0.21,,,1,,1,40.839183,-73.88028
ENTRADA_ACADEMY,12X384,12,1459,0.868,,0.99,0.96,0.8,0.1,0.92,0.23,0.74,0.73,0.8,0.7,0.77,0.85,2.4,1.97,0.14,3,,254,1,0.4,,,0.333,,,40.822084,-73.894038
URBAN_SCHOLARS_COMMUNITY_SCHOOL,12X463,12,1456,0.915,28867.61,0.99,0.99,0.52,0.1,0.92,0.33,0.96,0.91,0.89,0.86,0.87,0.93,2.13,2.1,0.32,4,,125,4,0.32,,,1,,1,40.828715,-73.900452
ARCHER_ELEMENTARY_SCHOOL,12X531,12,146,0.848,33924.52,0.98,0.85,0.59,0.2,0.93,0.24,0.88,0.89,0.87,0.9,0.83,0.93,2.11,2.23,0.27,6,,228,16,0.7,,,0.333,0.63,0.563,40.838212,-73.866026
P.S._536,12X536,12,146,0.853,32464.21,0.98,0.91,0.71,0.2,0.91,0.36,0.97,0.93,0.96,0.89,0.83,0.93,2.24,2.36,0.34,6,,19,8,0.42,,,0.5,,0.875,40.838212,-73.866026
BRONX_LITTLE_SCHOOL,12X691,12,146,0.798,33229.57,0.98,0.87,0.69,0.2,0.92,0.31,0.87,0.78,0.84,0.71,0.82,0.88,2.3,2.36,0.29,5,,173,5,0.29,,,0.4,,0.4,40.838212,-73.866026
P.S._3_THE_BEDFORD_VILLAGE,13K3,13,11216,0.819,48164.74,0.98,0.83,0.12,0.2,0.92,0.33,0.9,0.86,0.92,0.83,0.87,0.9,2.46,2.48,0.133,24,,185,26,0.141,,,0.625,,0.654,40.682307,-73.955241
P.S._8_ROBERT_FULTON,13K8,13,1121,0.179,111743.74,0.39,0.25,0.11,0.61,0.96,0.8,0.91,0.93,0.84,0.9,0.92,0.92,3.19,3.17,0.311,141,0.695,43,151,0.351,0.695,,0.57,,0.46,40.700728,-73.992805
P.S._9_TEUNIS_G._BERGEN,13K9,13,11238,0.437,7839.92,0.72,0.59,0.14,0.28,0.94,0.18,0.92,0.94,0.96,0.87,0.94,0.95,2.85,2.82,0.239,64,0.422,264,7,0.265,0.443,,0.219,,0.214,40.678584,-73.96634
P.S._11_PURVIS_J._BEHAN,13K11,13,11238,0.483,5593.76,0.88,0.79,0.11,0.12,0.94,0.16,0.92,0.89,0.95,0.85,0.9,0.9,2.92,3.15,0.357,124,0.145,347,155,0.447,0.129,,0.347,,0.342,40.685623,-73.965851
P.S._2_CLINTON_HILL,13K2,13,1125,0.641,6844.69,0.84,0.75,0.21,0.16,0.91,0.32,0.91,0.95,0.92,0.89,0.92,0.95,2.4,2.53,0.126,17,,134,15,0.112,,,0.235,,0.67,40.691059,-73.971016
P.S._44_MARCUS_GARVEY,13K44,13,11221,0.872,41143.63,0.98,0.93,0.11,0.2,0.9,0.37,0.88,0.87,0.8,0.75,0.85,0.91,2.27,2.31,0.39,3,,78,4,0.51,,,,,0.25,40.686208,-73.940924
P.S._46_EDWARD_C._BLUM,13K46,13,1125,0.88,37632.19,0.98,0.95,0.45,0.2,0.89,0.44,0.92,0.95,0.93,0.88,0.83,0.93,2.27,2.32,0.33,5,,154,11,0.71,,,0.8,,1,40.694425,-73.971627
P.S._54_SAMUEL_C._BARNES,13K54,13,1125,0.853,37511.84,1,0.93,0.37,,0.9,0.42,0.93,0.92,0.87,0.85,0.9,0.93,2.4,2.9,0.63,5,,82,1,0.12,,,,,,40.692697,-73.952501
P.S._56_LEWIS_H._LATIMER,13K56,13,11238,0.786,52763.92,0.95,0.9,0.1,0.5,0.92,0.32,0.93,0.95,0.95,0.86,0.9,0.97,2.54,2.82,0.71,6,,87,2,0.23,,,,,0.5,40.684336,-73.960549
P.S._67_CHARLES_A._DORSEY,13K67,13,1125,0.938,3914.78,0.99,0.88,0.35,0.1,0.91,0.36,0.94,0.89,0.91,0.82,0.87,0.89,2.9,2.15,0.36,4,,112,7,0.63,,,,,0.429,40.695143,-73.977889
P.S._93_WILLIAM_H._PRESCOTT,13K93,13,11216,0.842,43872.26,0.96,0.73,0.03,0.4,0.89,0.39,0.9,0.87,0.81,0.72,0.85,0.86,2.32,2.36,0.52,6,,118,4,0.34,,,,,,40.678907,-73.9465
M.S._113_RONALD_EDMONDS_LEARNING_CENTER,13K113,13,1125,0.797,,0.98,0.93,0.18,0.2,0.92,0.28,0.81,0.79,0.83,0.73,0.76,0.85,2.31,2.21,0.43,15,,296,2,0.7,,,0.867,,1,40.688432,-73.971169
P.S._133_WILLIAM_A._BUTLER,13K133,13,11217,0.447,67861.67,0.69,0.59,0.32,0.31,0.94,0.16,0.98,0.97,0.93,0.93,0.92,0.96,2.52,2.43,0.115,19,0.53,169,29,0.172,0.241,,0.158,,0.27,40.680088,-73.980577
P.S._256_BENJAMIN_BANNEKER,13K256,13,11216,0.882,38385.6,0.98,0.96,0.27,0.2,0.88,0.51,0.91,0.9,0.92,0.78,0.85,0.91,2.41,2.48,0.76,9,,116,12,0.13,,,0.333,,0.583,40.690482,-73.94971
DR._SUSAN_S._MCKINNEY_SECONDARY_SCHOOL_OF_THE_ARTS,13K265,13,1125,0.782,,1,0.96,0.23,,0.91,0.36,0.86,0.85,0.81,0.85,0.79,0.87,2.24,2.8,0.1,1,,12,,,,,,,,40.697012,-73.976044
M.S._K266_-_PARK_PLACE_COMMUNITY_MIDDLE_SCHOOL,13K266,13,11216,0.689,,0.99,0.98,0.19,0.1,0.91,0.33,0.84,0.88,0.75,0.85,0.85,0.92,2.23,2.1,0.34,4,,117,3,0.26,,,0.75,,1,40.678907,-73.9465
P.S._27_JOHANN_DEKALB,13K27,13,1125,0.886,463.12,0.99,0.93,0.24,0.1,0.89,0.44,0.82,0.8,0.84,0.71,0.82,0.88,2.18,2.2,0.19,1,,53,2,0.38,,,1,,1,40.689626,-73.961094
P.S._282_PARK_SLOPE,13K282,13,11217,0.555,6425.89,0.91,0.85,0.25,0.9,0.92,0.26,0.89,0.78,0.82,0.75,0.89,0.86,2.52,2.51,0.132,69,0.11,496,75,0.151,0.93,,0.435,,0.413,40.676626,-73.977783
P.S._287_BAILEY_K._ASHFORD,13K287,13,1121,0.92,35929.65,0.99,0.91,0.22,0.1,0.88,0.52,0.94,0.88,0.94,0.8,0.77,0.87,2.14,2.1,0.14,1,,71,5,0.7,,,,,0.2,40.697861,-73.981047
SATELLITE_EAST_MIDDLE_SCHOOL,13K31,13,11216,0.856,,0.98,0.78,0.14,0.2,0.88,0.47,0.89,0.86,0.84,0.8,0.79,0.85,2.14,1.99,0.23,2,,89,4,0.45,,,0.5,,0.5,40.685945,-73.945303
P.S._35_DR._PETER_RAY,13K35,13,11216,0.834,4387.97,0.96,0.87,0.11,0.4,0.89,0.44,0.79,0.8,0.86,0.63,0.79,0.79,2.4,1.99,0.26,2,,79,3,0.38,,,0.5,,,40.685945,-73.945303
P.S._37_DANIEL_HALE_WILLIAMS,13K37,13,1121,0.849,36954.58,0.92,0.86,0.29,0.8,0.91,0.32,0.95,0.93,0.92,0.84,0.89,0.95,2.18,2.38,0.38,5,,133,7,0.53,,,1,,0.429,40.701781,-73.981587
SATELLITE_WEST_MIDDLE_SCHOOL,13K313,13,1121,0.859,,1,0.94,0.52,,0.87,0.47,0.91,0.87,0.88,0.84,0.84,0.89,2.19,2.25,0.78,5,,65,2,0.31,,,,,,40.701781,-73.981587
THE_URBAN_ASSEMBLY_UNISON_SCHOOL,13K351,13,11238,0.78,,0.97,0.82,0.14,0.3,0.9,0.37,0.75,0.88,0.68,0.89,0.86,0.87,2.21,2.7,0.52,7,,141,2,0.14,,,0.571,,0.5,40.684336,-73.960549
ACADEMY_OF_ARTS_AND_LETTERS,13K492,13,1125,0.363,6316.9,0.69,0.57,0.17,0.31,0.95,0.1,0.94,0.96,0.9,0.92,0.91,0.93,2.82,2.83,0.298,48,0.229,164,31,0.189,0.161,,0.271,,0.355,40.691059,-73.971016
URBAN_ASSEMBLY_INSTITUTE_OF_MATH_AND_SCIENCE_FOR_YOUNG_WOMEN,13K527,13,1121,0.695,,0.92,0.86,0.14,0.8,0.91,0.28,0.84,0.89,0.82,0.86,0.73,0.88,2.36,2.19,0.51,7,,137,4,0.29,,,0.571,,0.75,40.694639,-73.988307
FORT_GREENE_PREPARATORY_ACADEMY,13K691,13,1125,0.71,,0.96,0.93,0.28,0.4,0.93,0.22,0.74,0.78,0.76,0.7,0.82,0.84,2.27,2.11,0.36,8,,221,4,0.18,,,0.625,,1,40.694425,-73.971627
P.S._16_LEONARD_DUNKLY,14K16,14,11211,0.94,23469.23,0.98,0.94,0.67,0.2,0.92,0.26,0.95,0.95,0.98,0.82,0.88,0.94,2.26,2.41,0.1,1,,13,1,0.1,,,,,,40.705915,-73.962068
P.S._17_HENRY_D._WOODWORTH,14K17,14,11211,0.725,6124.45,0.89,0.87,0.8,0.11,0.93,0.22,0.93,0.9,0.97,0.78,0.86,0.92,2.43,2.7,0.46,6,,13,23,0.177,0.43,,0.333,,0.522,40.715274,-73.957057
P.S._18_EDWARD_BUSH,14K18,14,1126,0.81,4481.53,0.99,0.96,0.8,0.1,0.92,0.31,0.95,0.97,0.97,0.93,0.83,0.98,2.23,2.38,0.26,2,,8,2,0.25,,,,,,40.710655,-73.946565
P.S._23_CARTER_G._WOODSON,14K23,14,1126,0.914,29397.91,0.97,0.95,0.46,0.3,0.89,0.42,0.98,0.97,0.98,0.94,0.89,0.96,2.16,2.36,0.39,4,,14,1,0.96,,,0.75,,0.8,40.694156,-73.94779
P.S._31_SAMUEL_F._DUPONT,14K31,14,11222,0.514,5786.3,0.58,0.48,0.43,0.42,0.95,0.12,0.96,0.91,0.96,0.83,0.85,0.95,3.1,3.41,0.248,51,0.588,211,88,0.417,0.545,,0.627,,0.625,40.726988,-73.954188
P.S._34_OLIVER_H._PERRY,14K34,14,11222,0.35,63982.88,0.27,0.23,0.19,0.73,0.94,0.15,0.96,0.94,0.93,0.84,0.87,0.94,2.97,3.28,0.199,39,0.667,198,61,0.38,0.77,,0.256,0.33,0.197,40.726392,-73.94984
J.H.S._5_JOHN_D._WELLS,14K5,14,11211,0.822,,0.97,0.96,0.82,0.3,0.89,0.4,0.82,0.8,0.81,0.66,0.78,0.85,2.13,2.11,0.42,7,,183,1,0.5,,,0.286,,,40.711863,-73.960049
P.S._59_WILLIAM_FLOYD,14K59,14,1126,0.921,26762.5,0.98,0.95,0.5,0.2,0.89,0.42,0.92,0.96,0.91,0.88,0.84,0.94,2.19,2.26,0.9,1,,117,8,0.68,,,1,,0.625,40.697704,-73.943342
JUAN_MOREL_CAMPOS_SECONDARY_SCHOOL,14K71,14,1126,0.868,,0.95,0.93,0.78,0.5,0.9,0.35,0.88,0.92,0.82,0.88,0.77,0.91,2.6,1.99,0.16,3,,169,1,0.6,,,0.333,,1,40.703878,-73.953472
P.S._84_JOSE_DE_DIEGO,14K84,14,11211,0.577,57582.52,0.73,0.65,0.62,0.27,0.93,0.23,0.93,0.93,0.92,0.84,0.89,0.94,2.43,2.45,0.46,13,,285,17,0.6,,,,0.59,0.118,40.714822,-73.963516
P.S._11_THE_MONITOR,14K11,14,11222,0.44,62585.59,0.36,0.28,0.23,0.64,0.95,0.12,0.98,0.96,0.95,0.9,0.89,0.96,2.72,2.74,0.153,19,0.684,125,22,0.176,0.682,,0.211,,0.45,40.72367,-73.941985
P.S._12_CARLOS_TAPIA,14K12,14,1126,0.871,4417.99,0.99,0.96,0.8,0.1,0.94,0.2,0.97,0.98,0.99,0.94,0.87,0.98,2.17,2.59,0.71,11,,157,25,0.159,,0.91,0.636,0.4,0.72,40.700657,-73.937693
JOHN_ERICSSON_MIDDLE_SCHOOL_126,14K126,14,11222,0.777,,0.88,0.84,0.63,0.12,0.92,0.26,0.87,0.77,0.86,0.66,0.82,0.83,2.25,2.22,0.59,2,0.1,319,9,0.28,,,0.75,,0.667,40.719769,-73.947968
P.S._132_THE_CONSELYEA_SCHOOL,14K132,14,11211,0.516,56594.7,0.67,0.58,0.42,0.33,0.94,0.17,0.86,0.86,0.91,0.8,0.89,0.9,3.2,3.15,0.294,77,0.338,262,15,0.41,0.362,0.13,0.195,0.1,0.21,40.714793,-73.945708
P.S._147_ISAAC_REMSEN,14K147,14,1126,0.849,33658.98,0.94,0.88,0.65,0.6,0.92,0.3,0.94,0.98,0.95,0.94,0.89,0.98,2.27,2.38,0.153,13,,82,15,0.183,,,,,,40.705023,-73.938707
P.S./I.S._157_THE_BENJAMIN_FRANKLIN_HEALTH_&_SCIENCE_ACADEMY,14K157,14,1125,0.859,4279.8,0.98,0.98,0.81,0.2,0.93,0.23,0.94,0.91,0.93,0.87,0.86,0.94,2.2,2.2,0.44,12,,281,6,0.21,,0.83,0.667,,1,40.695397,-73.960005
P.S._196_TEN_EYCK,14K196,14,1126,0.812,38357.99,0.98,0.96,0.78,0.2,0.93,0.25,0.95,0.96,0.95,0.92,0.87,0.98,2.43,2.67,0.21,2,,97,8,0.82,,,,,,40.708781,-73.939529
P.S._25_GEORGE_H._LINDSAY,14K25,14,1126,0.782,34774.99,0.98,0.84,0.73,0.2,0.94,0.22,0.94,0.87,0.9,0.73,0.84,0.93,2.46,2.51,0.7,22,,318,34,0.17,,,0.545,0.29,0.647,40.70674,-73.945664
P.S._257_JOHN_F._HYLAN,14K257,14,1126,0.826,31675.15,0.98,0.97,0.76,0.2,0.94,0.18,0.95,1,0.99,0.98,0.92,0.99,2.76,2.77,0.174,45,,263,37,0.141,,,0.556,,0.486,40.702805,-73.941486
P.S._297_ABRAHAM_STOCKTON,14K297,14,1126,0.916,2872.24,0.99,0.95,0.51,0.1,0.89,0.43,0.85,0.88,0.88,0.81,0.9,0.91,2.2,2.35,0.25,3,,12,11,0.92,,,0.667,,0.818,40.697436,-73.947854
I.S._318_EUGENIO_MARIA_DE_HOSTOS,14K318,14,1126,0.678,,0.87,0.8,0.62,0.13,0.95,0.14,0.87,0.91,0.87,0.85,0.78,0.92,2.59,2.63,0.99,134,0.343,1164,123,0.16,0.374,,0.36,0.8,0.285,40.703215,-73.948503
P.S._38_JOHN_WAYNE_ELEMENTARY,14K38,14,1126,0.814,36627.9,0.93,0.92,0.74,0.7,0.94,0.19,0.88,0.89,0.94,0.81,0.84,0.91,2.59,2.8,0.17,26,,245,41,0.167,,,0.538,0.49,0.537,40.701894,-73.953459
BROOKLYN_ARBOR_ELEMENTARY_SCHOOL,14K414,14,11238,0.646,44742.59,0.74,0.7,0.67,0.26,0.95,0.13,0.84,0.92,0.91,0.88,0.93,0.97,2.27,2.57,0.96,26,0.154,271,48,0.177,0.14,,0.385,,0.479,40.709823,-73.954488
CONSELYEA_PREPARATORY_SCHOOL,14K577,14,11211,0.551,,0.65,0.62,0.59,0.35,0.95,0.16,0.92,0.91,0.88,0.89,0.78,0.92,2.85,2.6,0.18,85,0.282,44,54,0.134,0.556,,0.318,,0.24,40.715274,-73.957057
M.S._582,14K582,14,1126,0.825,,0.97,0.95,0.72,0.3,0.92,0.29,0.97,0.96,0.93,0.92,0.84,0.95,2.38,2.15,0.33,7,0.143,211,1,0.5,,,0.429,,1,40.708781,-73.939529
LYONS_COMMUNITY_SCHOOL,14K586,14,1126,0.843,,0.99,0.97,0.56,0.1,0.88,0.39,0.85,0.95,0.84,0.92,0.84,0.93,2.11,1.89,,,,11,,,,,,,,40.709765,-73.944519
YOUNG_WOMEN'S_LEADERSHIP_SCHOOL_OF_BROOKLYN,14K614,14,1126,0.68,,0.98,0.91,0.33,0.2,0.92,0.26,0.84,0.88,0.85,0.83,0.81,0.93,2.52,2.44,0.26,3,,116,4,0.34,,,,,,40.705023,-73.938707
P.S._1_THE_BERGEN,15K1,15,1122,0.829,42845.8,0.96,0.89,0.88,0.4,0.95,0.13,0.84,0.79,0.88,0.68,0.83,0.89,2.35,2.6,0.45,23,,525,51,0.97,,0.43,0.783,0.78,0.647,40.648687,-74.011252
"MAGNET_SCHOOL_OF_MATH,_SCIENCE_AND_DESIGN_TECHNOLOGY",15K1,15,11215,0.334,77828.57,0.51,0.39,0.31,0.49,0.96,0.7,0.92,0.87,0.96,0.8,0.93,0.91,3,3.28,0.327,11,0.618,344,142,0.413,0.592,,0.82,0.21,0.63,40.660884,-73.98594
P.S._15_PATRICK_F._DALY,15K15,15,11231,0.89,36259.2,0.87,0.81,0.51,0.13,0.92,0.32,0.9,0.94,0.9,0.85,0.88,0.94,2.39,2.63,0.135,15,0.267,11,24,0.218,,,0.267,,0.5,40.677069,-74.011851
P.S._24,15K24,15,11232,0.799,42541.58,0.96,0.91,0.91,0.4,0.96,0.1,0.81,0.83,0.85,0.64,0.83,0.86,2.12,2.43,0.1,3,,322,18,0.56,0.111,,,0.222,0.722,40.652818,-74.004496
P.S._29_JOHN_M._HARRIGAN,15K29,15,1121,0.94,11377.13,0.26,0.15,0.11,0.74,0.96,0.5,0.92,0.96,0.97,0.91,0.96,0.98,3.32,3.58,0.339,111,0.739,327,151,0.462,0.781,,0.27,,0.13,40.686935,-73.99771
P.S._32_SAMUEL_MILLS_SPROLE,15K32,15,11231,0.491,67461.95,0.59,0.48,0.26,0.41,0.94,0.15,0.88,0.93,0.92,0.9,0.93,0.97,2.7,3.19,0.198,35,0.629,177,7,0.395,0.671,,0.171,,0.214,40.680431,-73.991704
P.S._38_THE_PACIFIC,15K38,15,11217,0.64,55574.87,0.79,0.63,0.26,0.21,0.93,0.25,0.93,0.93,0.93,0.86,0.93,0.93,2.54,2.73,0.242,44,0.23,18,58,0.322,0.34,,0.5,,0.517,40.684964,-73.982824
P.S._39_HENRY_BRISTOW,15K39,15,11215,0.174,9612.36,0.24,0.15,0.09,0.76,0.96,0.5,0.87,0.8,0.89,0.69,0.92,0.83,3.3,3.45,0.57,77,0.71,152,71,0.467,0.761,,0.91,,0.28,40.668666,-73.982912
M.S._51_WILLIAM_ALEXANDER,15K51,15,11215,0.248,,0.43,0.29,0.19,0.57,0.97,0.3,0.87,0.88,0.89,0.85,0.74,0.9,3.5,3.49,0.52,482,0.654,856,461,0.539,0.651,,0.139,0.4,0.141,40.67218,-73.984625
P.S._58_THE_CARROLL,15K58,15,11231,0.135,15151.5,0.28,0.15,0.12,0.72,0.96,0.5,0.91,0.94,0.97,0.92,0.95,0.94,3.24,3.47,0.375,13,0.754,351,16,0.456,0.744,,0.23,,0.44,40.68043,-73.99566
J.H.S._88_PETER_ROUGET,15K88,15,11215,0.719,,0.9,0.71,0.6,0.1,0.95,0.13,0.89,0.87,0.86,0.77,0.78,0.9,2.58,2.67,0.14,118,0.169,146,142,0.136,0.141,,0.746,0.42,0.725,40.660494,-73.9883
P.S._94_THE_HENRY_LONGFELLOW,15K94,15,1122,0.852,31997.48,0.99,0.37,0.37,0.1,0.97,0.7,0.9,0.83,0.91,0.77,0.81,0.87,2.31,2.78,0.7,49,,722,27,0.287,0.5,0.2,0.163,0.266,0.14,40.643673,-74.008715
P.S._17_JOHN_W._KIMBALL,15K17,15,11215,0.92,13244.94,0.23,0.14,0.1,0.77,0.96,0.3,0.98,0.91,0.95,0.88,0.92,0.93,3.35,3.6,0.345,86,0.849,248,118,0.476,0.831,,0.23,,0.42,40.663015,-73.981125
P.S._124_SILAS_B._DUTCHER,15K124,15,11215,0.647,63778.77,0.82,0.57,0.51,0.18,0.94,0.15,0.9,0.8,0.95,0.63,0.83,0.86,2.59,2.61,0.62,8,0.25,129,18,0.14,0.56,,0.25,0.56,0.444,40.667492,-73.990697
P.S._13_THE_PARKSIDE,15K13,15,11218,0.536,66731.9,0.6,0.34,0.27,0.4,0.96,0.9,0.92,0.87,0.93,0.82,0.86,0.9,2.69,2.84,0.124,34,0.529,28,44,0.157,0.364,,0.412,0.45,0.49,40.648959,-73.975848
P.S._131_BROOKLYN,15K131,15,11219,0.798,34945.93,0.91,0.56,0.55,0.9,0.95,0.12,0.94,0.96,0.97,0.89,0.83,0.97,2.64,2.93,0.11,49,,491,19,0.222,,0.2,0.592,0.128,0.486,40.640784,-73.993347
I.S._136_CHARLES_O._DEWEY,15K136,15,11232,0.89,,0.93,0.87,0.84,0.7,0.94,0.19,0.91,0.94,0.89,0.87,0.83,0.94,2.19,2.13,0.42,19,,48,15,0.31,0.67,,0.947,0.67,1,40.652095,-74.007424
"THE_BROOKLYN_NEW_SCHOOL,_P.S._146",15K146,15,11231,0.351,64358.48,0.56,0.42,0.22,0.44,0.95,0.12,0.97,0.99,0.95,0.99,0.95,0.98,2.96,2.96,0.83,1,,13,4,0.38,,,,,,40.679432,-74.001943
THE_WINDSOR_TERRACE_SCHOOL,15K154,15,11215,0.232,85598.17,0.36,0.22,0.19,0.64,0.96,0.7,0.88,0.93,0.99,0.9,0.94,0.97,3.28,3.28,0.39,85,0.694,218,93,0.427,0.677,,0.94,,0.75,40.657119,-73.976048
P.S._169_SUNSET_PARK,15K169,15,11232,0.822,38576.22,0.96,0.42,0.41,0.4,0.97,0.8,0.82,0.73,0.87,0.61,0.8,0.74,2.56,3,0.58,48,,864,177,0.25,0.17,,0.813,0.282,0.695,40.645814,-74.001702
P.S._172_BEACON_SCHOOL_OF_EXCELLENCE,15K172,15,11232,0.715,4686.7,0.87,0.81,0.77,0.13,0.96,0.9,0.97,0.95,0.97,0.95,0.88,0.98,3.33,3.93,0.43,98,0.153,247,182,0.737,0.181,0.61,0.867,0.99,0.593,40.657598,-74.000094
P.S._23_DORIS_L._COHEN,15K23,15,11218,0.723,51358.99,0.82,0.33,0.32,0.18,0.96,0.11,0.92,0.97,0.97,0.93,0.87,0.98,2.79,2.87,0.195,13,,54,146,0.27,,0.1,0.48,0.34,0.479,40.645318,-73.980292
P.S._261_PHILIP_LIVINGSTON,15K261,15,1121,0.394,73221.7,0.61,0.51,0.22,0.39,0.94,0.15,0.88,0.84,0.91,0.75,0.94,0.9,3.13,3.14,0.23,35,0.543,146,41,0.281,0.537,,0.86,,0.24,40.687121,-73.988365
P.S._295,15K295,15,11215,0.55,61759.23,0.68,0.52,0.47,0.32,0.95,0.1,0.91,0.96,0.95,0.95,0.9,0.98,2.77,2.97,0.195,42,0.452,218,63,0.289,0.476,,0.19,0.16,0.238,40.660969,-73.989018
P.S._321_WILLIAM_PENN,15K321,15,11215,0.97,11422.67,0.25,0.12,0.08,0.75,0.97,0.3,0.96,0.96,0.98,0.96,0.94,0.98,3.4,3.59,0.415,177,0.74,447,268,0.6,0.769,,0.17,,0.19,40.671669,-73.97834
P.S._372_-THE_CHILDREN'S_SCHOOL,15K418,15,11215,,,0.53,0.46,0.24,0.47,,,,,,,,,,,,,,,,,,,,,,40.67652,-73.985495
DIGITAL_ARTS_AND_CINEMA_TECHNOLOGY_HIGH_SCHOOL,15K429,15,1121,0.749,,0.96,0.93,0.39,0.4,0.88,0.52,0.79,0.73,0.78,0.67,0.69,0.76,2.1,2.14,0.22,1,,43,,,,,,,,40.685159,-73.993634
M.S._442_CARROLL_GARDENS_SCHOOL_FOR_INNOVATION,15K442,15,11231,0.684,,0.81,0.73,0.47,0.19,0.92,0.27,0.84,0.9,0.85,0.83,0.82,0.92,2.36,2.3,0.65,11,,151,21,0.139,0.19,,0.455,,0.476,40.680431,-73.991704
NEW_VOICES_SCHOOL_OF_ACADEMIC_&_CREATIVE_ARTS,15K443,15,11215,0.381,,0.55,0.48,0.35,0.45,0.95,0.1,0.93,0.94,0.86,0.89,0.83,0.93,3.1,3.11,0.34,16,0.575,399,128,0.321,0.594,,0.256,,0.211,40.660969,-73.989018
THE_MATH_&_SCIENCE_EXPLORATORY_SCHOOL,15K447,15,11217,0.244,,0.48,0.37,0.2,0.52,0.96,0.7,0.87,0.92,0.87,0.91,0.88,0.93,3.42,3.6,0.492,25,0.634,354,188,0.531,0.66,,0.98,,0.16,40.683835,-73.980355
BROOKLYN_SECONDARY_SCHOOL_FOR_COLLABORATIVE_STUDIES,15K448,15,11231,0.635,,0.9,0.85,0.45,0.1,0.94,0.17,0.85,0.91,0.85,0.87,0.81,0.93,2.49,2.4,0.59,3,,5,,,,,0.333,,,40.679432,-74.001943
PARK_SLOPE_COLLEGIATE,15K464,15,11215,0.652,,0.86,0.75,0.36,0.14,0.94,0.2,0.91,0.93,0.83,0.92,0.79,0.92,2.38,2.5,0.77,1,1,96,9,0.94,0.667,,,,0.111,40.669302,-73.97867
SCHOOL_FOR_INTERNATIONAL_STUDIES,15K497,15,1121,0.71,,0.84,0.77,0.34,0.16,0.95,0.13,0.83,0.85,0.73,0.79,0.71,0.8,2.14,2.1,0.45,6,0.667,132,8,0.61,0.625,,0.167,0.125,0.125,40.685159,-73.993634
RED_HOOK_NEIGHBORHOOD_SCHOOL,15K676,15,11231,0.933,1849.76,0.97,0.94,0.45,0.3,0.89,0.41,0.84,0.82,0.85,0.72,0.8,0.82,2.19,2.32,,,,84,,,,,,,,40.677847,-74.004818
SUNSET_PARK_PREP,15K821,15,11232,0.87,,0.96,0.76,0.75,0.4,0.96,0.9,0.78,0.84,0.84,0.85,0.71,0.92,2.68,2.89,0.86,42,0.48,427,78,0.183,0.115,0.24,0.952,0.51,0.949,40.652095,-74.007424
M.S._839,15K839,15,11218,,,0.64,0.47,0.33,0.36,,,,,,,,,,,0.129,9,0.222,68,7,0.13,0.429,,0.333,,0.429,40.647837,-73.973229
P.S._5_DR._RONALD_MCNAIR,16K5,16,11233,0.877,41931.64,0.97,0.95,0.14,0.3,0.91,0.39,0.96,0.91,0.88,0.75,0.86,0.9,2.5,2.9,0.183,13,,69,2,0.29,,,0.154,,0.2,40.685603,-73.923212
P.S._21_CRISPUS_ATTUCKS,16K21,16,11233,0.781,3489.1,0.98,0.97,0.08,0.2,0.92,0.29,0.92,0.88,0.9,0.79,0.87,0.89,2.51,2.51,0.62,14,,225,39,0.173,,,0.643,,0.615,40.680441,-73.92635
P.S._25_EUBIE_BLAKE_SCHOOL,16K25,16,11221,0.867,3694.25,0.99,0.93,0.28,0.1,0.91,0.39,0.88,0.89,0.9,0.87,0.87,0.92,2.11,2.4,0.38,2,,5,5,0.1,,,0.5,,1,40.691477,-73.940691
P.S._26_JESSE_OWENS,16K26,16,11221,0.887,33696.63,0.99,0.98,0.25,0.1,0.9,0.39,0.89,0.91,0.87,0.78,0.84,0.94,2.5,2.5,0.13,8,,79,8,0.11,,,0.125,,0.5,40.691976,-73.931488
P.S._28_THE_WARREN_PREP_ACADEMY,16K28,16,11233,0.862,3355.68,0.95,0.94,0.11,0.5,0.91,0.36,0.9,0.89,0.91,0.86,0.88,0.92,2.13,2.15,,,,84,2,0.24,,,,,0.5,40.678161,-73.920219
M.S._35_STEPHEN_DECATUR,16K35,16,11233,0.751,,1,0.98,0.14,,0.92,0.28,0.97,0.97,0.93,0.92,0.94,0.96,2.41,2.39,0.28,4,,118,2,0.17,,,1,,1,40.681708,-73.935722
P.S._4_GEORGE_W._CARVER,16K4,16,11233,0.95,34784.38,0.98,0.93,0.17,0.2,0.92,0.34,0.95,0.93,0.91,0.92,0.83,0.92,2.14,2.24,0.17,2,,12,8,0.67,,,,,0.625,40.680202,-73.921465
J.H.S._57_WHITELAW_REID,16K57,16,11221,0.884,,0.99,0.98,0.32,0.1,0.9,0.36,0.95,0.99,0.92,0.97,0.86,0.97,2.37,2.29,0.46,7,,15,7,0.47,,,0.857,,0.714,40.691396,-73.93314
P.S._81_THADDEUS_STEVENS,16K81,16,11221,0.892,28369.33,1,0.94,0.38,,0.9,0.36,0.93,0.94,0.88,0.85,0.86,0.94,2.24,2.38,0.38,5,,132,8,0.61,,,0.4,0.125,0.125,40.692927,-73.934795
P.S._243K-_THE_WEEKSVILLE_SCHOOL,16K243,16,11213,0.881,31741.82,1,0.92,0.22,,0.9,0.4,0.87,0.79,0.88,0.69,0.8,0.8,2.18,2.47,0.29,3,,17,12,0.112,,,0.667,,0.25,40.675732,-73.935082
P.S._262_EL_HAJJ_MALIK_EL_SHABAZZ_ELEMENTARY_SCHOOL,16K262,16,11233,0.827,4231.89,0.98,0.97,0.14,0.2,0.92,0.32,0.92,0.95,0.9,0.85,0.86,0.92,2.55,2.41,0.6,16,,266,11,0.41,,,,,0.91,40.683055,-73.929959
"M.S._267_MATH,_SCIENCE_&_TECHNOLOGY",16K267,16,11221,0.826,,0.97,0.87,0.25,0.3,0.86,0.46,0.97,0.93,0.86,0.92,0.8,0.91,2.43,2.42,0.149,15,,88,22,0.25,,,0.467,,0.5,40.687938,-73.932378
P.S._38_CLARA_CARDWELL,16K38,16,11221,0.828,35536.41,1,0.96,0.19,,0.89,0.44,0.87,0.86,0.86,0.77,0.83,0.86,2.27,2.1,0.9,2,,212,1,0.5,,,1,,,40.688447,-73.935295
P.S._39_THE_GEORGE_E._WIBECAN_PREPARATORY_ACADEMY,16K39,16,11221,0.884,381.14,0.99,0.93,0.31,0.1,0.92,0.28,0.88,0.8,0.89,0.73,0.82,0.82,2.14,2.24,0.45,4,,85,3,0.35,,,0.5,,0.667,40.688119,-73.924441
P.S._335_GRANVILLE_T._WOODS,16K335,16,11213,0.878,2971.6,0.98,0.98,0.18,0.2,0.9,0.35,0.87,0.93,0.91,0.85,0.85,0.95,2.33,2.35,0.69,1,,144,2,0.139,,,0.8,,0.85,40.674464,-73.928381
M.S._584,16K584,16,11213,0.885,,1,0.97,0.23,,0.9,0.41,0.9,0.93,0.81,0.93,0.87,0.95,2.9,1.98,0.13,1,,8,1,0.13,,,,,,40.674464,-73.928381
BRIGHTER_CHOICE_COMMUNITY_SCHOOL,16K627,16,1126,0.841,33792.71,0.99,0.99,0.29,0.1,0.91,0.37,0.88,0.95,0.97,0.91,0.97,1,2.62,2.48,0.74,4,,52,1,0.19,,,0.75,,,40.693761,-73.940731
BROOKLYN_BROWNSTONE_SCHOOL,16K628,16,11233,0.62,4423.43,0.92,0.91,0.09,0.8,0.94,0.24,0.93,0.99,0.97,0.99,0.94,0.98,2.64,2.75,0.155,9,,58,11,0.19,,,0.556,,0.455,40.681708,-73.935722
MADIBA_PREP_MIDDLE_SCHOOL,16K681,16,11221,0.759,,0.98,0.97,0.21,0.2,0.91,0.27,0.87,0.87,0.84,0.76,0.8,0.88,2.18,2.13,0.32,5,,141,4,0.28,,,0.4,,0.5,40.691976,-73.931488
PARKSIDE_PREPARATORY_ACADEMY,17K2,17,11226,0.717,,0.98,0.93,0.13,0.2,0.94,0.16,0.87,0.89,0.85,0.86,0.77,0.88,2.46,2.42,0.61,27,0.37,451,34,0.75,0.29,,1,,0.941,40.656389,-73.951462
NORMA_ADAMS_CLEMONS_ACADEMY,17K6,17,11226,0.831,415.87,0.98,0.97,0.23,0.2,0.92,0.34,0.95,0.97,0.95,0.86,0.82,0.95,2.31,2.46,0.52,17,,34,26,0.76,,,0.824,0.38,0.846,40.648983,-73.956246
DR._JACQUELINE_PEEK-DAVIS_SCHOOL,17K12,23,11233,0.858,29535.4,0.98,0.97,0.19,0.2,0.9,0.42,0.93,0.85,0.93,0.84,0.87,0.91,2.26,2.19,0.34,3,,89,4,0.45,,,1,,1,40.673118,-73.920067
M.S._61_DR._GLADSTONE_H._ATWELL,17K61,17,11225,0.713,,0.99,0.94,0.1,0.1,0.93,0.21,0.85,0.78,0.82,0.7,0.86,0.81,2.36,2.32,0.79,58,,739,55,0.74,,,0.586,,0.564,40.663676,-73.949034
P.S._91_THE_ALBANY_AVENUE_SCHOOL,17K91,17,1123,0.768,4387.86,0.99,0.97,0.06,0.1,0.92,0.28,0.95,0.89,0.93,0.8,0.83,0.85,2.18,2.22,0.79,13,,168,15,0.89,,,0.538,,0.467,40.661792,-73.940462
P.S._92_ADRIAN_HEGEMAN,17K92,17,11226,0.87,4152.76,0.99,0.93,0.18,0.1,0.92,0.3,0.77,0.89,0.84,0.77,0.86,0.92,2.14,2.22,0.24,5,,26,11,0.53,,,0.6,0.273,0.455,40.656271,-73.954146
P.S._138_BROOKLYN,17K138,17,11216,0.776,42632,0.96,0.94,0.09,0.4,0.91,0.31,0.99,1,0.92,0.99,0.92,0.96,2.47,2.54,0.6,25,,429,6,0.14,,,0.64,,0.7,40.673945,-73.951395
P.S._161_THE_CROWN,17K161,17,11225,0.736,41699.4,0.98,0.89,0.11,0.2,0.94,0.2,0.99,0.94,0.96,0.89,0.87,0.95,2.45,2.64,0.99,2,,25,2,0.98,,,0.75,,0.6,40.665905,-73.9492
P.S._181_BROOKLYN,17K181,17,1123,0.721,43642.71,0.98,0.95,0.1,0.2,0.92,0.26,0.8,0.81,0.81,0.79,0.81,0.87,2.27,2.17,0.41,22,,54,1,0.19,,,0.591,,0.7,40.64809,-73.945911
